start_date,end_date,Count_sum,postcode,latitude,longitude
2022-1-1,2022-1-8,45,4741766118899712 white Istrian Coarse-haired Hound,53.40410726510657,-2.953914204784496
2022-1-9,2022-1-16,45,3522424513495040 purple Alapaha Blue Blood Bulldog,53.409494662992536,-2.9740633985888962
2022-1-17,2022-1-24,8,7271279071592448 pink Olde English Bulldogge,53.42201577557775,-2.9392051569044497
2022-2-2,2022-2-9,5,8522660283678720 tan Tamaskan Dog,53.408776021348146,-2.9583890144647285
2022-2-2,2022-2-9,48,8997780043333632 azure Stabyhoun,53.38495215917076,-2.9413941160686363
2022-2-18,2022-2-25,33,377875796590592 red Shiba Inu,53.36029630005919,-2.947263783492076
2022-2-26,2022-3-5,15,1776629858697216 pink Paisley Terrier,53.391784475109425,-2.944188491896284
2022-3-6,2022-3-13,24,5233668947705856 grey Galician Shepherd Dog,53.420496459777,-2.939195649938597
2022-3-14,2022-3-21,36,425186593603584 blue English Foxhound,53.40293301916379,-2.944926526716472
2022-3-14,2022-3-21,34,5975231806046208 cyan Jack Russell Terrier,53.3892460456903,-2.955112056855114
2022-3-22,2022-3-29,46,7081305271435264 tan Kooikerhondje,53.39968371026378,-2.929250546289495
2022-4-7,2022-4-14,30,1844502352363520 olive Tamaskan Dog,53.39614564539487,-2.9510690713964323
2022-4-7,2022-4-14,15,7515711599542272 orange Taigan,53.391338012893044,-2.9729311525577486
2022-4-15,2022-4-22,20,2312506513031168 pink Akbash,53.378457638481635,-2.94003775022793
2022-5-1,2022-5-8,17,5016417264992256 teal Pharaoh Hound,53.376526818860384,-2.956737789497197
2022-5-1,2022-5-8,21,4413600120700928 salmon Alopekis,53.404407121460295,-2.9564238232165962
2022-5-17,2022-5-24,7,1180649811607552 violet Irish Terrier,53.37703070566396,-2.9296129745822554
2022-5-17,2022-5-24,46,2964703273811968 gold Akbash,53.39780426149573,-2.9479380583545662
2022-5-25,2022-6-1,18,1447980760563712 sky blue Ibizan Hound,53.394502458399344,-2.9634632763861646
2022-6-2,2022-6-9,12,2447849862201344 turquoise Hygen Hound,53.3771948094653,-2.949477732692685
2022-6-10,2022-6-17,48,4349024425476096 indigo Boerboel,53.39717406715784,-2.9324692063833027
2022-6-18,2022-6-25,17,3391109130616832 olive Clumber Spaniel,53.36753569546867,-2.9527693717299144
2022-6-26,2022-7-3,2,4050193611751424 gold Otterhound,53.393908356569455,-2.9408461421961647
2022-7-4,2022-7-11,21,4905543474872320 indigo Schweizerischer Niederlaufhund,53.393853213073534,-2.956481414811037
2022-7-12,2022-7-19,35,4032349375299584 mint green Keeshond,53.38867335899912,-2.9368381386731244
2022-7-28,2022-8-4,30,5218547550650368 fuchsia Karst Shepherd,53.385302949100534,-2.9270953323472213
2022-8-5,2022-8-12,5,7059200230293504 cyan Cirneco dell'Etna,53.40204575370725,-2.9147851323515397
2022-8-13,2022-8-20,19,3852922798473216 ivory Dogo Argentino,53.39076063344679,-2.913440442295837
2022-8-13,2022-8-20,43,8771686151225344 orchid Dutch Shepherd,53.40155241837308,-2.921429343489649
2022-8-21,2022-8-28,28,963804097675264 tan Austrian Black and Tan Hound,53.38806352560535,-2.948972672256218
2022-9-6,2022-9-13,48,6196099459055616 gold Cão da Serra de Aires,53.383654784773036,-2.95525230134956
2022-9-6,2022-9-13,3,7340711382876160 black Tibetan Mastiff,53.41170035178279,-2.9592677397808984
2022-9-22,2022-9-29,41,5408314745683968 white Grand Anglo-Français Blanc et Noir,53.36309067661551,-2.940756129063402
2022-9-22,2022-9-29,19,7906764435488768 ivory Braque du Bourbonnais,53.38841317117308,-2.9408012945571045
2022-10-8,2022-10-15,13,3148625779621888 grey Posavac Hound,53.37251354880506,-2.9510158992944753
2022-10-16,2022-10-23,11,1850821478187008 teal Ratonero Mallorquin,53.41390274267113,-2.95116952998535
2022-10-24,2022-10-31,41,1021104323821568 white Thai Ridgeback,53.389513578192386,-2.94739184375851
2022-11-1,2022-11-8,14,7605385548529664 violet Griffon Fauve de Bretagne,53.3775569894674,-2.9579538846585365
2022-11-1,2022-11-8,31,3000454669664256 olive Treeing Cur,53.38962165757314,-2.946963509934676
2022-11-17,2022-11-24,38,3056300453789696 green Sardinian Shepherd Dog,53.380124140861234,-2.92608394438048
2022-11-25,2022-12-2,10,1208172593283072 pink Bolognese,53.38586931794518,-2.943942821868859
2022-11-25,2022-12-2,20,3175076474126336 pink Kuvasz,53.404302071780016,-2.9570002178161303
2022-12-3,2022-12-10,16,793044731297792 purple Hamiltonstövare,53.402842508868446,-2.9279834500565585
2022-12-19,2022-12-26,19,4747103089721344 purple Toy Fox Terrier,53.40777449255914,-2.93656272282567
2022-12-19,2022-12-26,7,6605901119094784 yellow Irish Red and White Setter,53.40201717236675,-2.945062246873931
2023-1-4,2023-1-11,23,3665255758561280 orchid Schillerstövare,53.36199550093224,-2.947149656343754
2023-1-12,2023-1-19,8,370380971704320 pink Ibizan Hound,53.42659602427597,-2.9591392041094196
2023-1-12,2023-1-19,38,6587258788380672 azure American Foxhound,53.414245244813436,-2.9483046380505584
2023-1-20,2023-1-27,13,7319475281985536 cyan Lithuanian Hound,53.40083989284782,-2.9438243119544723
2023-1-28,2023-2-4,22,3811138684846080 pink Chien Français Blanc et Orange,53.41774922805049,-2.955802599440858
2023-2-13,2023-2-20,15,6541975406772224 violet Carea Castellano Manchego,53.39533699557114,-2.971579637689615
2023-2-21,2023-2-28,39,2122193750196224 violet Italian Greyhound,53.39969858823294,-2.953547326970238
2023-3-1,2023-3-8,8,2294347772985344 azure Telomian,53.41591890024232,-2.9494086763993437
2023-3-9,2023-3-16,34,8642398557044736 orange Old English Terrier,53.41055409041857,-2.973952228394296
2023-3-9,2023-3-16,3,8297571868999680 yellow Petit Bleu de Gascogne,53.40312357750195,-2.932101109099108
2023-3-17,2023-3-24,43,191359176671232 pink Border Collie,53.37908616596303,-2.952379145182249
2023-3-25,2023-4-1,39,2790741115928576 tan Sabueso Español,53.374785679149134,-2.9667311886234984
2023-4-10,2023-4-17,24,8227004360949760 magenta Briard,53.37581454119722,-2.938992563602824
2023-4-10,2023-4-17,21,4719929878118400 violet Poitevin,53.393814820669675,-2.9485783181009992
2023-4-18,2023-4-25,6,7878419599589376 silver Pomeranian,53.385723849840964,-2.930554726708806
2023-5-4,2023-5-11,47,215415003283456 turquoise Bully Kutta,53.39543321274833,-2.944533044585114
2023-5-4,2023-5-11,45,8683199926370304 grey Small Greek domestic dog,53.39264806190732,-2.946269137495392
2023-5-20,2023-5-27,2,8187490108178432 teal American Pit Bull Terrier,53.41253916237727,-2.9509596663436923
2023-5-20,2023-5-27,18,461981534388224 teal Perro de Presa Mallorquin,53.37685892411905,-2.949725772875013
2023-6-5,2023-6-12,39,8029920236142592 violet Soft-Coated Wheaten Terrier,53.42800013805947,-2.9584610664502407
2023-6-13,2023-6-20,48,4953731370057728 magenta Scottish Deerhound,53.39199700170345,-2.9512552774114056
2023-6-13,2023-6-20,44,4700697423511552 purple Aidi,53.41205566168974,-2.9690619829182197
2023-6-29,2023-7-6,39,1804601191825408 olive Dunker,53.393416428621556,-2.948273417567748
2023-6-29,2023-7-6,47,5444863088656384 blue Anglo-Français de Petite Vénerie,53.41325772650382,-2.94209920768094
2023-7-15,2023-7-22,46,3103082726555648 indigo Broholmer,53.39540656988334,-2.934712261532127
2023-7-15,2023-7-22,33,235255145431040 gold Old Croatian Sighthound,53.39230333659881,-2.93385785244584
2023-7-23,2023-7-30,7,5887148129517568 black Australian Cattle Dog,53.38069619508845,-2.9398090812504734
2023-8-8,2023-8-15,26,40347304460288 orchid German Wirehaired Pointer,53.41719307455488,-2.9669600785122157
2023-8-16,2023-8-23,32,2622119036846080 yellow Kuchi,53.40660306729698,-2.95327001937153
2023-8-24,2023-8-31,33,8295408872718336 green Pumi,53.39247827822924,-2.9604795888064928
2023-9-1,2023-9-8,24,3990604134481920 salmon Tibetan Mastiff,53.39067060549294,-2.9454153507018646
2023-9-9,2023-9-16,16,5153730424995840 cyan Indian pariah dog,53.39359318024682,-2.9582855138551167
2023-9-17,2023-9-24,31,543623439450112 olive Serrano Bulldog,53.37483216969384,-2.9672194182367093
2023-9-17,2023-9-24,13,229364933328896 cyan Akita,53.396374739117284,-2.9403838564254556
2023-9-25,2023-10-2,40,7517861150982144 grey Segugio Italiano,53.400963049423886,-2.9187801634666357
2023-10-3,2023-10-10,4,1734557495721984 yellow English Springer Spaniel,53.39380558167075,-2.9661258361795717
2023-10-11,2023-10-18,16,154370402418688 indigo Westphalian Dachsbracke,53.36291944566833,-2.957754689595049
2023-10-27,2023-11-3,2,6158164290437120 plum Border Collie,53.365412375119185,-2.9513802417230863
2023-11-4,2023-11-11,1,8118980610883584 olive Newfoundland,53.39175382723812,-2.9546198459831885
2023-11-12,2023-11-19,43,2038319391178752 indigo German Pinscher,53.38341969648316,-2.9400568380460754
2023-11-20,2023-11-27,17,5185743186034688 pink Dogo Sardesco,53.38275571004636,-2.947985277470025
2023-11-20,2023-11-27,4,3508450491367424 turquoise Galician Shepherd Dog,53.423703737156465,-2.9488993850953875
2023-12-6,2023-12-13,22,7078435333603328 ivory East European Shepherd,53.409901251955944,-2.950692267991826
2023-12-14,2023-12-21,34,8465572337549312 grey German Shepherd Dog,53.39656637802918,-2.947055026447515
2023-12-14,2023-12-21,33,1445807796518912 violet English Foxhound,53.40337383973201,-2.9572067217034146
2023-12-30,2024-1-6,18,671685126651904 violet Gull Terrier,53.393761699026705,-2.948817275159172
2024-1-7,2024-1-14,20,8277542272237568 tan White Shepherd,53.41266784566599,-2.954505454100854
2024-1-15,2024-1-22,48,5165191268401152 mint green Trigg Hound,53.36716459478453,-2.943213949263054
2024-1-15,2024-1-22,34,3251108690526208 turquoise Polish Tatra Sheepdog,53.39442586284711,-2.948948282566789
2024-1-23,2024-1-30,37,1827426344632320 maroon Manchester Terrier,53.4265979555229,-2.9532521915991765
2024-1-31,2024-2-7,18,1310089264758784 green Saint Bernard,53.40939914521245,-2.9584966972048505
2024-2-16,2024-2-23,7,1040524565807104 cyan German Shepherd Dog,53.39492910510786,-2.9550021037504166
2024-2-16,2024-2-23,19,1020731993358336 red Tornjak,53.38413998662612,-2.95511100402166
2024-3-3,2024-3-10,29,8668796231352320 tan Pražský Krysařík,53.395099507374525,-2.9520879316016817
2024-3-11,2024-3-18,47,4327169400504320 lavender Pyrenean Sheepdog,53.40757197075259,-2.947388422529002
2024-3-19,2024-3-26,9,5574007499784192 gold Cursinu,53.42176125125863,-2.9289425542280014
2024-3-27,2024-4-3,7,7179222382542848 magenta Hovawart,53.37767917784248,-2.9541569057170136
2024-3-27,2024-4-3,33,6387119811461120 silver Boston Terrier,53.39754256128702,-2.9729563133946613
2022-1-9,2022-1-16,2,1099063386701824 ivory Puli,53.412271348905726,-2.9621453092081538
2022-1-17,2022-1-24,43,1089831962673152 ivory French Bulldog,53.36964441863995,-2.9739290708107546
2022-1-17,2022-1-24,26,4993944970592256 violet Hovawart,53.385724762819876,-2.932962848801367
2022-1-25,2022-2-1,15,160372371750912 purple Rhodesian Ridgeback,53.40504454532575,-2.958126014871823
2022-2-2,2022-2-9,6,4527769666977792 indigo Austrian Black and Tan Hound,53.39657398689463,-2.9659478353059967
2022-2-10,2022-2-17,22,3859446627303424 teal White Swiss Shepherd Dog,53.38567886501882,-2.9232488909428866
2022-2-18,2022-2-25,13,5119698075123712 black Spanish Water Dog,53.410931422722804,-2.94236975166541
2022-3-6,2022-3-13,7,8540107984338944 indigo Kangal Shepherd Dog,53.382913074649515,-2.9254616618611635
2022-3-14,2022-3-21,11,3499525484314624 gold Bohemian Shepherd,53.395366887901346,-2.9489105159527753
2022-3-22,2022-3-29,5,8261723274346496 violet Hierran Wolfdog,53.39199697708303,-2.9495266665592226
2022-3-22,2022-3-29,48,1374213256511488 blue French Bulldog,53.3981962924829,-2.950074166461718
2022-3-30,2022-4-6,19,3183769355812864 cyan Australian Terrier,53.414907398192916,-2.9236820551243454
2022-4-15,2022-4-22,32,3369546392010752 blue Maltese,53.39528292237796,-2.9418534465469293
2022-4-23,2022-4-30,28,4771822845296640 tan Kars,53.38032958107345,-2.974884822037666
2022-4-23,2022-4-30,46,4100469884452864 gold Bull Terrier,53.39449683890476,-2.9510078011398946
2022-5-9,2022-5-16,27,5440747098603520 violet Saint Hubert Jura Hound,53.39743726859326,-2.9287822485141533
2022-5-9,2022-5-16,44,6698520440471552 turquoise Transylvanian Hound,53.360632991310425,-2.950516571069784
2022-5-17,2022-5-24,35,3105288873836544 salmon Greek Shepherd,53.39589331487941,-2.9341404144679473
2022-6-2,2022-6-9,31,7618841278414848 red Perro de Pastor Mallorquin,53.38753382021999,-2.9233583611212453
2022-6-10,2022-6-17,8,1982571233673216 gold Rhodesian Ridgeback,53.404790076607064,-2.97538454083724
2022-6-10,2022-6-17,26,8103168674103296 maroon Tosa,53.40236332213147,-2.975714533075916
2022-6-26,2022-7-3,48,2483400063582208 pink Blue Lacy,53.395849834790035,-2.9399784287544435
2022-6-26,2022-7-3,5,5033596435824640 pink Old Danish Pointer,53.39582536110512,-2.9735023742355224
2022-7-12,2022-7-19,14,1107571828064256 white Icelandic Sheepdog,53.42738502565771,-2.958555190815332
2022-7-20,2022-7-27,29,3877007064563712 azure Molossus of Epirus,53.383932399191195,-2.93645991288372
2022-7-20,2022-7-27,20,6117780753481728 lime Australian Terrier,53.40405370616229,-2.9473434868995128
2022-8-5,2022-8-12,28,3364699684995072 cyan Sinhala Hound,53.391531181538845,-2.9378160204284995
2022-8-5,2022-8-12,43,5816174405222400 pink Alopekis,53.368135641449214,-2.954950076010846
2022-8-21,2022-8-28,7,4731691694292992 green Afghan Hound,53.37667839847151,-2.9299067182959107
2022-8-21,2022-8-28,28,954101726707712 magenta German Spitz,53.39315130810965,-2.9454278271829253
2022-8-29,2022-9-5,15,4935884898041856 plum Dutch Shepherd,53.38124457366999,-2.9369396410121453
2022-9-6,2022-9-13,45,712732768731136 yellow Boxer,53.423055829276,-2.9361815038167833
2022-9-22,2022-9-29,35,6415474248122368 pink Yorkshire Terrier,53.39396516094712,-2.9480762075849043
2022-9-22,2022-9-29,37,52187057094656 salmon Appenzeller Sennenhund,53.40322151689584,-2.9423731511773212
2022-9-30,2022-10-7,33,7288437403025408 magenta Paisley Terrier,53.39291370006755,-2.9354114973721153
2022-10-8,2022-10-15,26,4178650092011520 yellow Icelandic Sheepdog,53.380191375883406,-2.9430999516064276
2022-10-24,2022-10-31,18,1251259008942080 orchid King Shepherd,53.40296319702786,-2.969205246442584
2022-10-24,2022-10-31,17,4859886340931584 grey Central Asian Shepherd Dog,53.393808088149804,-2.9474496672182795
2022-11-1,2022-11-8,23,7329226350919680 olive Soft-Coated Wheaten Terrier,53.41764969287647,-2.9331013643726465
2022-11-9,2022-11-16,17,4248864972341248 violet Volpino Italiano,53.378107661246375,-2.9683013428855247
2022-11-17,2022-11-24,35,7877793318699008 lavender Shih Tzu,53.38332380592638,-2.9283571997082163
2022-11-25,2022-12-2,32,935766945431552 lime Barbado da Terceira,53.40254390848156,-2.9544518699032096
2022-12-11,2022-12-18,41,7886948167319552 fuchsia Bruno Jura Hound,53.41302903925964,-2.9569709306533696
2022-12-11,2022-12-18,7,3035648579600384 plum German Spaniel,53.37145374452864,-2.9352983129659833
2022-12-27,2023-1-3,45,8962955324424192 grey Hygen Hound,53.40631048964739,-2.9506840859605745
2023-1-4,2023-1-11,26,8225128280227840 lime Mucuchies,53.41834525493872,-2.9427130668973405
2023-1-4,2023-1-11,24,8487650572894208 salmon Kromfohrländer,53.393577308308046,-2.949431319407495
2023-1-12,2023-1-19,18,5656988230877184 lavender Romanian Mioritic Shepherd Dog,53.4263022843986,-2.943590456000038
2023-1-20,2023-1-27,20,5335468824592384 gold Braque de l'Ariège,53.38894026926658,-2.971558753510976
2023-2-5,2023-2-12,1,3953992340078592 magenta Kromfohrländer,53.39753349856233,-2.943567098432709
2023-2-5,2023-2-12,42,1994583806312448 lime Standard Schnauzer,53.37474235463071,-2.948285810420657
2023-2-13,2023-2-20,27,2415479052304384 plum Komondor,53.36485967471084,-2.9591905479053366
2023-2-21,2023-2-28,9,7061671629553664 indigo Drever,53.41245722722095,-2.9458224125668266
2023-3-1,2023-3-8,35,4114663751024640 silver Pembroke Welsh Corgi,53.38366279331317,-2.9504026974160524
2023-3-9,2023-3-16,46,3411743153848320 sky blue Pudelpointer,53.39468192755412,-2.972328047327437
2023-3-17,2023-3-24,36,3055507927465984 mint green Cardigan Welsh Corgi,53.427165777323296,-2.936782569280922
2023-3-25,2023-4-1,3,443445292302336 white Golden Retriever,53.39430075273306,-2.9498436634123664
2023-4-10,2023-4-17,17,794262207725568 violet Greek Shepherd,53.39488694342965,-2.9605153095022843
2023-4-18,2023-4-25,11,2449516645056512 orchid Field Spaniel,53.40573623075806,-2.9504746786357146
2023-4-18,2023-4-25,8,1926674461491200 lime German Spitz,53.360416885111235,-2.945394845122337
2023-5-4,2023-5-11,23,8044478833098752 maroon Pharaoh Hound,53.3986560398106,-2.9402426052686224
2023-5-4,2023-5-11,45,1571509262876672 lavender Huntaway,53.384387831914786,-2.9449550828534257
2023-5-12,2023-5-19,34,561312492945408 purple Bracco Italiano,53.3939025,-2.9486548999999513
2023-5-20,2023-5-27,25,6457127006633984 red Pungsan Dog,53.36503784992623,-2.9429802051977276
2023-5-28,2023-6-4,8,6670911937708032 magenta Irish Water Spaniel,53.391090174230094,-2.948268583854656
2023-6-13,2023-6-20,17,2191316718977024 violet Kintamani,53.38272125209126,-2.9705864049260526
2023-6-21,2023-6-28,4,4854696485322752 magenta Small Greek domestic dog,53.41073845965535,-2.9491866497999126
2023-6-29,2023-7-6,31,344048732733440 white Garafian Shepherd,53.394463442679495,-2.924930780651266
2023-7-7,2023-7-14,25,3840027027046400 green Petit Bleu de Gascogne,53.38881447615843,-2.949698265035636
2023-7-7,2023-7-14,32,6132680538193920 azure McNab dog,53.39166940823832,-2.9503040679072683
2023-7-15,2023-7-22,7,231834709393408 plum Toy Fox Terrier,53.40065327630901,-2.983313122685445
2023-7-23,2023-7-30,10,2792515568664576 lime Can de Chira,53.37211035655965,-2.9556261286059
2023-7-31,2023-8-7,46,3045819999584256 olive Norwegian Lundehund,53.394873584124255,-2.9480629432491696
2023-8-16,2023-8-23,22,641403883356160 purple Hällefors Elkhound,53.38638892718208,-2.9170561238029222
2023-8-16,2023-8-23,40,735900665380864 red King Charles Spaniel,53.408486566338816,-2.9754021568749067
2023-8-24,2023-8-31,39,7381424418062336 fuchsia Dogo Guatemalteco,53.40601686397838,-2.9544370921246355
2023-9-9,2023-9-16,37,3030409415753728 green Vizsla,53.40357392197315,-2.9339330224420337
2023-9-17,2023-9-24,44,3863892482588672 tan Eurasier,53.38270341137503,-2.9329388514231596
2023-9-17,2023-9-24,33,8842640426532864 white Kintamani,53.41220002872101,-2.9632546338592647
2023-9-25,2023-10-2,10,2487670930407424 grey Tamaskan Dog,53.37052562870561,-2.9302566463952644
2023-10-11,2023-10-18,14,4990810628030464 olive Finnish Lapphund,53.37709297385808,-2.9603698729408734
2023-10-11,2023-10-18,34,7101326743830528 lime Skye Terrier,53.36478584024669,-2.9664396006978677
2023-10-27,2023-11-3,17,3158964965474304 orange Braque du Bourbonnais,53.381812253832074,-2.9659122994257814
2023-11-4,2023-11-11,13,238857968680960 indigo Silken Windhound,53.40024653586129,-2.9472749934338935
2023-11-4,2023-11-11,47,4845216395689984 turquoise Istrian Shorthaired Hound,53.369002628820844,-2.9569559201868287
2023-11-20,2023-11-27,43,5724328356216832 pink Italian Greyhound,53.39455811565371,-2.9630754642582815
2023-11-28,2023-12-5,43,8165662788681728 grey Banjara Hound,53.39961784941196,-2.93076714123697
2023-11-28,2023-12-5,7,5875656246165504 teal Ratonero Bodeguero Andaluz,53.37353740627728,-2.9324827131977145
2023-12-6,2023-12-13,35,3103047481819136 mint green Shih Tzu,53.40235181224848,-2.9181845839081006
2023-12-14,2023-12-21,46,1410200265293824 orchid Irish Red and White Setter,53.37039485167196,-2.972195049751349
2023-12-22,2023-12-29,14,6915384982634496 lime Manchester Terrier,53.39106827897414,-2.966710967846325
2024-1-7,2024-1-14,47,3752360769748992 orchid Bolognese,53.395334621715655,-2.9556560163166523
2024-1-7,2024-1-14,10,8588653995491328 ivory Mackenzie River Husky,53.39068983501934,-2.9487732726995546
2024-1-15,2024-1-22,43,2970245050400768 grey Eurasier,53.36257119856103,-2.957249536520976
2024-1-23,2024-1-30,5,1734576374284288 black Finnish Hound,53.403019617935044,-2.9307270414066124
2024-1-31,2024-2-7,29,1953527951785984 pink Griffon Bleu de Gascogne,53.40196144098297,-2.9154833553938033
2024-2-16,2024-2-23,43,197544925724672 plum Welsh Sheepdog,53.397732149102424,-2.935920095483084
2024-2-16,2024-2-23,31,2560568535810048 mint green Dutch Shepherd,53.38664670324972,-2.9436077227372834
2024-2-24,2024-3-2,44,2593404168962048 lavender Alpine Dachsbracke,53.37562342789276,-2.9673406315517923
2024-3-3,2024-3-10,23,7965678233452544 turquoise Kangal Shepherd Dog,53.40291402441171,-2.946268479747573
2024-3-19,2024-3-26,23,3829259265114112 orchid Serbian Hound,53.36417204074341,-2.929839284937202
2024-3-19,2024-3-26,37,6515962350141440 violet Kerry Blue Terrier,53.38774818057421,-2.937537531316025
2024-4-4,2024-4-11,33,8900337461100544 lime Wirehaired Pointing Griffon,53.39429818861533,-2.949711573605555
2022-1-9,2022-1-16,41,3326086861553664 turquoise Eurasier,53.364064597572344,-2.952992137187721
2022-1-9,2022-1-16,28,8616666877394944 black Tenterfield Terrier,53.409515377708,-2.9777574319818996
2022-1-25,2022-2-1,42,3075642834812928 cyan Löwchen,53.40417860181425,-2.979286820743482
2022-2-2,2022-2-9,41,8511989865250816 yellow Norwegian Lundehund,53.39426564823687,-2.9485570118487203
2022-2-2,2022-2-9,43,1914957505495040 maroon Pudelpointer,53.39929783421498,-2.932461850749064
2022-2-18,2022-2-25,11,5209322961240064 tan Olde English Bulldogge,53.406965476570846,-2.954944164786184
2022-2-18,2022-2-25,4,7402522589265920 salmon Patterdale Terrier,53.38561808877885,-2.9396668904039416
2022-3-6,2022-3-13,34,860462885371904 teal Ratonero Bodeguero Andaluz,53.41167548648202,-2.9256308464903213
2022-3-14,2022-3-21,5,5734261539733504 fuchsia Gull Terrier,53.39373498918969,-2.948864930833224
2022-3-22,2022-3-29,16,6489045437775872 salmon Cão de Castro Laboreiro,53.366307995284906,-2.95657903441338
2022-3-22,2022-3-29,13,2307146913939456 white Slovenský Cuvac,53.38410403349534,-2.9545681398494708
2022-4-7,2022-4-14,44,7609167921545216 lime Rhodesian Ridgeback,53.41186876090106,-2.9518108106161662
2022-4-7,2022-4-14,33,7983549948887040 red Harrier,53.402319761824245,-2.972112181899206
2022-4-23,2022-4-30,6,2566866753028096 grey Löwchen,53.382997926305116,-2.976236491339364
2022-5-1,2022-5-8,13,8756995708420096 black Shar Pei,53.39401869695214,-2.917079783802592
2022-5-1,2022-5-8,2,6754173120937984 salmon American Bulldog,53.39846087994687,-2.9733748131278617
2022-5-17,2022-5-24,37,5055681323335680 plum Sapsali,53.36291496219293,-2.9626736996506224
2022-5-17,2022-5-24,6,4179775878856704 cyan Taiwan Dog,53.40644498243991,-2.92275020171337
2022-5-25,2022-6-1,39,7190876419784704 purple Golden Retriever,53.39703708507083,-2.9423928137398434
2022-6-2,2022-6-9,31,4727752378810368 white Pharaoh Hound,53.40072277190606,-2.9428379952930754
2022-6-18,2022-6-25,8,4558275100016640 fuchsia Japanese Spitz,53.39415476858166,-2.949514132688364
2022-6-26,2022-7-3,29,5100076751912960 magenta Perro de Pastor Mallorquin,53.395485644305026,-2.98055812870939
2022-7-4,2022-7-11,17,7572498346409984 yellow Carea Castellano Manchego,53.39420773998176,-2.9282935178165417
2022-7-12,2022-7-19,5,651369325264896 tan Basset Artésien Normand,53.399818645176886,-2.961201295945557
2022-7-20,2022-7-27,2,3883034031947776 violet Pungsan Dog,53.38252950262131,-2.9475496122000777
2022-7-20,2022-7-27,20,1967400570322944 yellow American English Coonhound,53.39873468173914,-2.972711077305007
2022-7-28,2022-8-4,14,3456988677668864 plum Vikhan,53.38776960755136,-2.9580725469667186
2022-8-5,2022-8-12,42,1348179830243328 teal Gull Terrier,53.37075708234303,-2.938599828850556
2022-8-21,2022-8-28,35,1590962484674560 pink Bully Kutta,53.362393449713345,-2.944787739154094
2022-8-29,2022-9-5,1,1207258543292416 tan Perro Majorero,53.38023528195234,-2.963361956020435
2022-8-29,2022-9-5,3,3496358709297152 mint green Villano de Las Encartaciones,53.39403991225708,-2.9490904425681492
2022-9-6,2022-9-13,17,2744517790793728 white Polish Lowland Sheepdog,53.408531189767174,-2.9498477773977356
2022-9-14,2022-9-21,3,6623922460033024 lime Great Dane,53.40708059406682,-2.931024269651175
2022-9-30,2022-10-7,7,8283355416100864 salmon Norfolk Terrier,53.39498969230051,-2.950488042101938
2022-10-8,2022-10-15,41,7725943676207104 red Lapponian Herder,53.40160828513539,-2.942165377129413
2022-10-16,2022-10-23,31,5309643838455808 magenta Irish Setter,53.39389084580812,-2.9478132106792145
2022-10-16,2022-10-23,48,7037044280786944 silver Kuvasz,53.40619824273203,-2.949460111893927
2022-11-1,2022-11-8,26,7344682736549888 cyan Hygen Hound,53.39416566532198,-2.949369134831045
2022-11-1,2022-11-8,5,959549420863488 mint green Tibetan Mastiff,53.420943541196834,-2.964940418770766
2022-11-17,2022-11-24,21,519987892584448 violet Villano de Las Encartaciones,53.42299227691529,-2.9666032064700403
2022-11-25,2022-12-2,9,3061271347855360 salmon Treeing Cur,53.40707841587603,-2.938627147705006
2022-12-3,2022-12-10,46,4585385508208640 green Portuguese Water Dog,53.4174317588522,-2.9666817084521426
2022-12-3,2022-12-10,22,7246761768779776 black Koyun dog,53.388809376697935,-2.919982070070205
2022-12-11,2022-12-18,22,3263210050289664 orange Otterhound,53.39629598026419,-2.9458825626542193
2022-12-27,2023-1-3,35,4392420850532352 olive Scottish Terrier,53.425511302225175,-2.9353197296405824
2022-12-27,2023-1-3,14,1471972347215872 violet Miniature Pinscher,53.403845662642475,-2.9448466633423322
2023-1-12,2023-1-19,7,7484863158419456 green Curly-Coated Retriever,53.384802998364535,-2.9289867621828307
2023-1-20,2023-1-27,46,2119757698433024 black English Foxhound,53.390609341530435,-2.9292310870814617
2023-1-20,2023-1-27,32,3910701424836608 teal Perro Majorero,53.42133685164372,-2.9491096296155774
2023-2-5,2023-2-12,18,7369144385142784 white German Roughhaired Pointer,53.40438340042667,-2.9500689138709504
2023-2-13,2023-2-20,27,2400331013029888 tan Alpine Dachsbracke,53.39033181650747,-2.951031779846403
2023-2-13,2023-2-20,9,5871347865485312 lavender Petit Bleu de Gascogne,53.39448597917153,-2.9550580605908863
2023-2-21,2023-2-28,11,1039273845325824 gold Sussex Spaniel,53.41430396472686,-2.945235411500107
2023-3-1,2023-3-8,13,7092635028160512 orchid Indian Spitz,53.40092900273602,-2.922474639261509
2023-3-9,2023-3-16,30,4945384247918592 white Welsh Terrier,53.39562931846429,-2.941646781540385
2023-3-25,2023-4-1,6,3216056069914624 tan Bhotia,53.37917633873656,-2.971370034172537
2023-4-2,2023-4-9,45,576111020867584 silver Armant,53.38630619707089,-2.957070625223082
2023-4-10,2023-4-17,47,3170630692241408 mint green Schillerstövare,53.39808850419834,-2.949670122117368
2023-4-18,2023-4-25,27,2245654069903360 orange Ratonero Valenciano,53.418166588148,-2.950787200191371
2023-4-18,2023-4-25,38,6459201501003776 olive Lancashire Heeler,53.3803006179581,-2.9539512191124686
2023-4-26,2023-5-3,29,8540198916849664 tan Kintamani,53.364299597254366,-2.945137017631282
2023-5-4,2023-5-11,5,6630966128803840 green West Siberian Laika,53.362446124796605,-2.935373114555773
2023-5-20,2023-5-27,12,3966086489833472 purple Irish Terrier,53.38534686557501,-2.9708568969526823
2023-5-28,2023-6-4,43,805234330828800 ivory Jagdterrier,53.38919487868086,-2.9472070087479096
2023-6-5,2023-6-12,38,5181337948389376 black Hovawart,53.39000162403738,-2.9780020090582866
2023-6-13,2023-6-20,12,2063830200877056 teal Gascon Saintongeois,53.392332119157565,-2.9500825588745556
2023-6-21,2023-6-28,11,8832724771012608 lime Chinese Chongqing Dog,53.42061489505715,-2.9307993812171844
2023-6-29,2023-7-6,8,6088097001373696 salmon Ratonero Mallorquin,53.42690672368139,-2.9464205315339314
2023-6-29,2023-7-6,36,5882870235136000 gold Norwegian Elkhound,53.39478773137878,-2.956863817272506
2023-7-7,2023-7-14,4,3853409862025216 white Doberman Pinscher,53.400868923123504,-2.9730398739055772
2023-7-15,2023-7-22,34,1389077219770368 fuchsia Lupo Italiano,53.38885312915026,-2.9240945797654376
2023-7-23,2023-7-30,36,3289950900453376 indigo Eurasier,53.38862091416868,-2.9397412124812945
2023-8-8,2023-8-15,35,631891103318016 magenta Gull Dong,53.39483468967236,-2.951364639060216
2023-8-8,2023-8-15,45,5247174375899136 indigo Grand Basset Griffon Vendéen,53.40772699396505,-2.965587295693581
2023-8-16,2023-8-23,13,7000189717970944 indigo English Cocker Spaniel,53.42080078149371,-2.9473968570180205
2023-8-24,2023-8-31,17,6262711849582592 indigo Toy Manchester Terrier,53.394577168303364,-2.9496145864183063
2023-9-9,2023-9-16,8,7369232325017600 ivory Polish Greyhound,53.394923377334855,-2.9497230934973686
2023-9-17,2023-9-24,5,4341503786745856 magenta German Spitz,53.384437786981245,-2.9529139645694613
2023-9-25,2023-10-2,14,8095424080510976 grey King Shepherd,53.381238160802084,-2.9343319182630694
2023-9-25,2023-10-2,21,3428013863600128 fuchsia Treeing Tennessee Brindle,53.363477743716544,-2.945746886665461
2023-10-3,2023-10-10,12,674767816359936 mint green West Siberian Laika,53.38944133937583,-2.9440122503986004
2023-10-11,2023-10-18,20,4430238794645504 sky blue Phu Quoc Ridgeback,53.40910662267804,-2.9450463858297553
2023-10-19,2023-10-26,41,4274342049349632 plum Pont-Audemer Spaniel,53.39132064657721,-2.9470580967533806
2023-11-4,2023-11-11,2,6907503417753600 azure Kromfohrländer,53.37795500791118,-2.975355685935824
2023-11-12,2023-11-19,35,7177025269792768 pink Pointer,53.365771138948546,-2.962615994881048
2023-11-12,2023-11-19,38,343713366671360 sky blue Galgo Español,53.37762125110489,-2.9348735941956647
2023-11-28,2023-12-5,32,4670604296847360 plum Lancashire Heeler,53.3977944502595,-2.9771628741144696
2023-11-28,2023-12-5,28,4256019328794624 lime Neapolitan Mastiff,53.3825805730025,-2.9308733556275683
2023-12-14,2023-12-21,7,1320355211771904 violet Miniature Fox Terrier,53.40293447654099,-2.9607311757094976
2023-12-14,2023-12-21,38,2367796214235136 yellow Hovawart,53.400747053255465,-2.9457343562647793
2023-12-22,2023-12-29,23,3222316219629568 cyan Bhotia,53.389631334037425,-2.95164155444877
2024-1-7,2024-1-14,39,4229030471532544 silver Dachshund,53.42336500447716,-2.965430386792036
2024-1-15,2024-1-22,48,1315899864776704 gold Italian Greyhound,53.38312775019627,-2.924957232972588
2024-1-15,2024-1-22,2,6687666114396160 salmon Barbet,53.399669086584026,-2.9454633207133156
2024-1-23,2024-1-30,27,6007036517023744 yellow Japanese Spitz,53.417392345849215,-2.961109486097712
2024-1-31,2024-2-7,7,5626147886858240 yellow Petit Basset Griffon Vendéen,53.415475421757414,-2.927321903626762
2024-2-8,2024-2-15,25,5900862266277888 maroon Perro de Pastor Mallorquin,53.382116310785264,-2.9546571472375263
2024-2-16,2024-2-23,27,2762923644551168 tan Chilean Terrier,53.41133581647119,-2.971443055075156
2024-2-24,2024-3-2,11,8364126162124800 teal Staffordshire Bull Terrier,53.38931713067398,-2.944593778456351
2024-3-3,2024-3-10,5,1542245964578816 red Rat Terrier,53.38710078798946,-2.9417542158308834
2024-3-19,2024-3-26,13,5449840922198016 fuchsia English Setter,53.407922100776645,-2.928627070931725
2024-3-19,2024-3-26,42,1001151354896384 violet Mountain Feist,53.38240889099924,-2.9230808450980703
2024-3-27,2024-4-3,20,2877118503452672 purple Lakeland Terrier,53.3763659610194,-2.958882303998621
2022-1-9,2022-1-16,48,915668916502528 grey Artois Hound,53.379457683899965,-2.9520888885917884
2022-1-9,2022-1-16,31,6698432469139456 violet Karakachan dog,53.381210495966066,-2.959606460753662
2022-1-17,2022-1-24,17,4534684570615808 purple Portuguese Pointer,53.39490921161808,-2.94764799071811
2022-1-25,2022-2-1,1,582709820784640 gold Dogue de Bordeaux,53.39048223157643,-2.9385244310244616
2022-2-10,2022-2-17,38,5290704429383680 ivory Swedish White Elkhound,53.39459423731184,-2.9292975907421805
2022-2-18,2022-2-25,37,5027723116281856 lime Alaskan Husky,53.41874068609726,-2.968438942459102
2022-2-26,2022-3-5,47,930203800961024 pink Estrela Mountain Dog,53.425780917093526,-2.9575222697192203
2022-2-26,2022-3-5,31,3239706236026880 teal Vizsla,53.41473833969316,-2.929746261588548
2022-3-14,2022-3-21,11,1200859411120128 lime Cesky Terrier,53.36975627703605,-2.9676828306572816
2022-3-22,2022-3-29,24,6329691870855168 teal Galgo Español,53.407989151774046,-2.9496539567240916
2022-3-22,2022-3-29,23,5030812084862976 indigo Komondor,53.37081486525466,-2.942507874798366
2022-3-30,2022-4-6,6,2269613693861888 cyan Can de Chira,53.39059306425768,-2.9416612842712766
2022-4-15,2022-4-22,8,3176636960735232 magenta Rough Collie,53.36637297882342,-2.962237120175473
2022-4-23,2022-4-30,34,1710097264803840 orange American Foxhound,53.39145797352309,-2.9486852600872453
2022-4-23,2022-4-30,30,215071842107392 red Phu Quoc Ridgeback,53.41012287385542,-2.9788847299469126
2022-5-1,2022-5-8,27,2649630324031488 olive Patagonian Sheepdog,53.415256070693445,-2.9210529082741914
2022-5-17,2022-5-24,35,7745548111052800 ivory Swedish Lapphund,53.416755067659274,-2.9618538610131964
2022-5-25,2022-6-1,21,4367799331848192 plum Drentse Patrijshond,53.392696831313636,-2.9625186429024097
2022-5-25,2022-6-1,21,4202998462939136 green Australian Stumpy Tail Cattle Dog,53.382582898439935,-2.957336249697505
2022-6-2,2022-6-9,20,3838375656161280 plum Japanese Terrier,53.38737637495549,-2.9457877338004437
2022-6-18,2022-6-25,9,1418368968032256 lime Alano Español,53.412447445955685,-2.9742215196134794
2022-6-18,2022-6-25,5,86575297855488 grey Caucasian Shepherd Dog,53.41670285244469,-2.9746351429566857
2022-6-26,2022-7-3,19,3946227557203968 orange Spinone Italiano,53.394560979880524,-2.928212282442132
2022-7-12,2022-7-19,48,6314936055627776 blue Denmark Feist,53.39302258489311,-2.9519513380694207
2022-7-20,2022-7-27,48,1531277809287168 azure Romanian Mioritic Shepherd Dog,53.393052433757795,-2.9321906753274334
2022-7-28,2022-8-4,8,6764230904643584 orange Jagdterrier,53.40191569027758,-2.981468915758569
2022-7-28,2022-8-4,4,615167444385792 turquoise Seppala Siberian Sleddog,53.38963141979127,-2.948938569685879
2022-8-13,2022-8-20,27,6276518256836608 yellow Blue Lacy,53.37986337692812,-2.9441639580300034
2022-8-13,2022-8-20,15,2686883784032256 tan Sinhala Hound,53.41681846089776,-2.9648257475589617
2022-8-21,2022-8-28,11,7999605752987648 turquoise Yorkshire Terrier,53.39781868387168,-2.9630136410237355
2022-9-6,2022-9-13,22,2140945455775744 olive Belgian Shepherd,53.39206609233414,-2.9531283328400377
2022-9-6,2022-9-13,36,5677474614607872 red Canadian Eskimo Dog,53.39347608167208,-2.9486007720478256
2022-9-22,2022-9-29,48,6560612094050304 pink Patagonian Sheepdog,53.38733703213003,-2.9796133454040046
2022-9-30,2022-10-7,23,5144653080821760 violet Kintamani,53.412069610161666,-2.965557735294965
2022-9-30,2022-10-7,36,8295761714348032 orchid New Guinea Singing Dog,53.40085054818322,-2.94561267928043
2022-10-16,2022-10-23,9,7157826757591040 turquoise Hokkaido,53.38822688365098,-2.9599439817014854
2022-10-16,2022-10-23,43,2015592080998400 pink Tosa,53.37821417492109,-2.9422804514146037
2022-11-1,2022-11-8,32,7057841722490880 tan Vikhan,53.38572871484073,-2.9496121319447184
2022-11-9,2022-11-16,36,1814373551046656 lavender Smooth Collie,53.38728587083521,-2.9726729831998
2022-11-9,2022-11-16,21,2931766650208256 gold Miniature Pinscher,53.39695873125666,-2.9422746732557243
2022-11-25,2022-12-2,17,5594161891770368 mint green Pyrenean Sheepdog,53.398214097348934,-2.935329453670306
2022-11-25,2022-12-2,19,2878440187363328 purple German Shorthaired Pointer,53.38934213941683,-2.9294153468887316
2022-12-11,2022-12-18,24,1263980089704448 white Patterdale Terrier,53.37085923893076,-2.952564402883695
2022-12-11,2022-12-18,32,6851658713661440 sky blue Griffon Bleu de Gascogne,53.386894023668894,-2.9593081963538452
2022-12-19,2022-12-26,47,6459117157744640 lime Kuvasz,53.419808860456364,-2.9440651791207983
2022-12-27,2023-1-3,28,202797016416256 indigo Black Mouth Cur,53.38433799554555,-2.9231863299866063
2023-1-12,2023-1-19,32,4627186088673280 ivory Karst Shepherd,53.4034471414228,-2.970752745750019
2023-1-12,2023-1-19,48,4131714058158080 violet Bull Terrier,53.415982336527186,-2.931330831192895
2023-1-28,2023-2-4,16,3450197942206464 olive Cardigan Welsh Corgi,53.383142909321336,-2.9303611362087167
2023-2-5,2023-2-12,30,69296657006592 silver Rhodesian Ridgeback,53.378991116556854,-2.9499063407255335
2023-2-13,2023-2-20,42,1284171997642752 plum Dingo,53.420116545103184,-2.9569686305089817
2023-2-13,2023-2-20,5,1051697153572864 teal Saarloos Wolfdog,53.39389576521024,-2.943828159698569
2023-2-21,2023-2-28,16,8757606134841344 white Magyar agár,53.38625963681961,-2.94543785489077
2023-3-9,2023-3-16,5,1332796062695424 lavender Sloughi,53.39890530236021,-2.96920646452611
2023-3-17,2023-3-24,9,4566671391981568 violet Dogue de Bordeaux,53.410461034724534,-2.92994560633133
2023-3-25,2023-4-1,47,8078618718633984 purple Basque Shepherd Dog,53.420821830304405,-2.956496136379201
2023-4-2,2023-4-9,14,6349755051409408 olive Lhasa Apso,53.38731729695244,-2.947999423297688
2023-4-10,2023-4-17,14,6639971272228864 orange Old Croatian Sighthound,53.40595285883513,-2.9398590880371103
2023-4-10,2023-4-17,38,437921674952704 azure Lithuanian Hound,53.37115221483686,-2.963865052944243
2023-4-26,2023-5-3,8,4021947329413120 grey Mucuchies,53.39274630824551,-2.9411767764868273
2023-4-26,2023-5-3,47,4743554245066752 red Yorkshire Terrier,53.37817752772191,-2.948639316238882
2023-5-12,2023-5-19,34,2431768544149504 plum Billy,53.394085247795196,-2.961324907123071
2023-5-12,2023-5-19,19,5907424844185600 grey Segugio dell'Appennino,53.365083248201344,-2.935385042932353
2023-5-20,2023-5-27,31,3176398353072128 silver Black Norwegian Elkhound,53.410493814275,-2.9548835134260116
2023-6-5,2023-6-12,18,5366847251677184 salmon Akita,53.39625753486649,-2.9690802610210767
2023-6-5,2023-6-12,47,2389784259461120 lavender Kuvasz,53.38576124771056,-2.9305182413449984
2023-6-13,2023-6-20,38,5423924405862400 grey German Hound,53.407099882916526,-2.981569461266986
2023-6-29,2023-7-6,14,3871551124406272 orange Black Russian Terrier,53.37190504363501,-2.9607447857405305
2023-7-7,2023-7-14,34,1673165342244864 magenta Staffordshire Bull Terrier,53.40528639626115,-2.9371421362343426
2023-7-7,2023-7-14,37,5547635767246848 violet Black Norwegian Elkhound,53.37746751502116,-2.9189703963037346
2023-7-23,2023-7-30,41,7488734872207360 silver Black Russian Terrier,53.370252526557394,-2.9411726446725197
2023-7-23,2023-7-30,4,5674565443256320 salmon Chien Français Tricolore,53.40983760007789,-2.9557526167837977
2023-8-8,2023-8-15,8,8189734578814976 lavender German Pinscher,53.40887335504759,-2.9537512573525646
2023-8-16,2023-8-23,37,1688766389420032 turquoise Kerry Blue Terrier,53.37133283157842,-2.9649104054622057
2023-8-16,2023-8-23,32,1604606477991936 salmon Bearded Collie,53.37440863292583,-2.972611558349513
2023-8-24,2023-8-31,25,7196460936331264 purple Huntaway,53.39605602748505,-2.9500411561984947
2023-9-1,2023-9-8,44,1188454314541056 purple Portuguese Podengo,53.38904881796988,-2.9677209262968063
2023-9-9,2023-9-16,9,7613065948299264 pink Swedish Vallhund,53.39338472187551,-2.9482271314242325
2023-9-25,2023-10-2,47,4708572229271552 purple Bakharwal dog,53.396828374645736,-2.982180356938102
2023-9-25,2023-10-2,37,3218890135961600 teal White Swiss Shepherd Dog,53.39998426565241,-2.9575142816121343
2023-10-3,2023-10-10,16,615217018961920 mint green Bully Kutta,53.38205062377966,-2.978365467688377
2023-10-11,2023-10-18,18,2162232519557120 grey Saluki,53.39866332405115,-2.9326467626783597
2023-10-19,2023-10-26,13,3702639963406336 magenta West Highland White Terrier,53.410786417206864,-2.9745814799321124
2023-10-27,2023-11-3,28,8533896671002624 red Jonangi,53.392095462440174,-2.948923016709273
2023-11-4,2023-11-11,9,6840112058990592 teal Tyrolean Hound,53.39017630841531,-2.9456577791557947
2023-11-12,2023-11-19,25,7217703393689600 pink Schweizerischer Niederlaufhund,53.42186280164707,-2.944923023813999
2023-11-20,2023-11-27,40,5521217454866432 blue Tamaskan Dog,53.40852260519381,-2.951028742873291
2023-11-28,2023-12-5,2,2533240724258816 mint green Spinone Italiano,53.389055612698925,-2.980254694665632
2023-12-14,2023-12-21,23,7274884962975744 magenta Afghan Hound,53.37805673616609,-2.9597791465014325
2023-12-14,2023-12-21,8,1317387750080512 mint green Austrian Black and Tan Hound,53.36508745452954,-2.9416680587225983
2023-12-30,2024-1-6,22,1706557783932928 tan Grand Anglo-Français Blanc et Orange,53.42755377037294,-2.9426083229085407
2024-1-7,2024-1-14,26,7533211276017664 magenta Drever,53.39375736270356,-2.957841583584127
2024-1-7,2024-1-14,8,8223526402129920 green Wirehaired Pointing Griffon,53.38070141468088,-2.9751139505148103
2024-1-15,2024-1-22,17,1589120312803328 indigo Terrier Brasileiro,53.39582779974409,-2.9572628921207524
2024-1-23,2024-1-30,13,421034882760704 indigo Treeing Tennessee Brindle,53.398706334916895,-2.983934425108714
2024-1-31,2024-2-7,45,6019050253582336 yellow Airedale Terrier,53.411533542694805,-2.9543495665069486
2024-2-8,2024-2-15,6,2317602495922176 mint green Boston Terrier,53.38637067583761,-2.9432534810413244
2024-2-24,2024-3-2,17,2346795646582784 red Kokoni,53.399987626925,-2.9416401121885656
2024-2-24,2024-3-2,39,3428953752600576 olive Šarplaninac,53.36723058688631,-2.940486037616779
2024-3-11,2024-3-18,15,3968574821498880 white Bhotia,53.392739232626994,-2.9475782640494117
2024-3-11,2024-3-18,38,8542271328747520 yellow Pshdar Dog,53.38490231226082,-2.962221078794869
2024-3-19,2024-3-26,11,2589350550306816 blue Pomeranian,53.383879678358326,-2.9447793919895275
2024-3-27,2024-4-3,38,8897521113890816 tan Cão da Serra de Aires,53.407818155492215,-2.9359127283869384
2022-1-9,2022-1-16,24,4956935065436160 pink Russian Spaniel,53.385644829710095,-2.953876195346197
2022-1-17,2022-1-24,34,8238792695611392 cyan Picardy Spaniel,53.42532339874081,-2.9533675119504323
2022-1-25,2022-2-1,15,1066476077318144 gold American Hairless Terrier,53.381074835398614,-2.9385142212641995
2022-2-2,2022-2-9,34,4194191252914176 red Pudelpointer,53.39838806593364,-2.941153653659512
2022-2-10,2022-2-17,27,6620219269185536 black Japanese Spitz,53.38971199602389,-2.9587249779600597
2022-2-10,2022-2-17,13,7342814551605248 yellow Koolie,53.393628487258674,-2.950106845211849
2022-2-18,2022-2-25,11,601614291304448 maroon Russian Toy,53.38394652906681,-2.9447803855572374
2022-2-26,2022-3-5,21,4265289438986240 plum Briard,53.39913185080453,-2.93500794963893
2022-3-14,2022-3-21,3,6280353771683840 fuchsia Old Danish Pointer,53.37676170964478,-2.9756512941420397
2022-3-22,2022-3-29,14,8567871105925120 grey English Toy Terrier,53.363472012361726,-2.9616946355464506
2022-3-30,2022-4-6,36,7710597747572736 teal Redbone Coonhound,53.39144626890037,-2.9372571471367337
2022-3-30,2022-4-6,27,5498574437613568 pink Puli,53.41720532169319,-2.92707038870617
2022-4-7,2022-4-14,38,4434833103126528 orchid French Bulldog,53.39394730769547,-2.9541441321241564
2022-4-15,2022-4-22,29,8722547140984832 maroon Greek Shepherd,53.36411978481496,-2.9295049314013113
2022-5-1,2022-5-8,27,8484204945866752 purple Wirehaired Vizsla,53.41403015943324,-2.948297066456007
2022-5-9,2022-5-16,18,7414063252373504 fuchsia American Bully,53.36364577391574,-2.9392867438169787
2022-5-17,2022-5-24,47,7995903205965824 ivory Telomian,53.401241170459734,-2.934444336448223
2022-5-17,2022-5-24,33,5904044323241984 azure Galgo Español,53.39505016189852,-2.9679815645821463
2022-6-2,2022-6-9,26,2058557188997120 yellow Dogue de Bordeaux,53.39576939698113,-2.938090497001781
2022-6-2,2022-6-9,48,2340424951791616 sky blue Pomeranian,53.377088889577976,-2.9613699248045577
2022-6-18,2022-6-25,5,3766751231737856 sky blue Chinese Chongqing Dog,53.402695645848745,-2.9495499814962614
2022-6-26,2022-7-3,21,2996566587604992 red Alaskan Malamute,53.39377172685654,-2.948576964897711
2022-6-26,2022-7-3,44,8075544331550720 olive Chow Chow,53.393596271181856,-2.9494485982654624
2022-7-4,2022-7-11,27,3474179187802112 fuchsia Gończy Polski,53.393925610475634,-2.9475715914825287
2022-7-12,2022-7-19,28,7296778785259520 yellow Sussex Spaniel,53.41265477646096,-2.9713551999772108
2022-7-20,2022-7-27,5,7536524948144128 ivory Japanese Chin,53.38999466494789,-2.9489913283721307
2022-8-5,2022-8-12,28,2673081640288256 silver Pug,53.37660314745721,-2.9534618061672973
2022-8-13,2022-8-20,27,6391545053839360 sky blue Boxer,53.3950160379227,-2.9489944269020043
2022-8-21,2022-8-28,14,3728860556296192 plum Basset Bleu de Gascogne,53.42122197011993,-2.951105541745278
2022-8-21,2022-8-28,14,5665209561645056 orange Afghan Hound,53.36829012794039,-2.9465241517270897
2022-8-29,2022-9-5,31,293673726115840 black Rottweiler,53.39047296271886,-2.968873042158407
2022-9-6,2022-9-13,12,1707599149924352 orange American Water Spaniel,53.377129384398636,-2.944164662428534
2022-9-22,2022-9-29,23,8931930881916928 orange Norwegian Lundehund,53.38517437940319,-2.9256368391788783
2022-9-30,2022-10-7,13,4963231795773440 green Tamaskan Dog,53.38119971243836,-2.916719225852262
2022-9-30,2022-10-7,20,8814646209282048 pink Bull Terrier,53.39143639384445,-2.949055584224311
2022-10-16,2022-10-23,2,7150826556489728 orange Podenco Canario,53.3874869351417,-2.9407600906265543
2022-10-16,2022-10-23,47,1869982472339456 cyan Basset Hound,53.41854777829931,-2.9738406423130073
2022-10-24,2022-10-31,3,5019869458202624 lavender Romanian Mioritic Shepherd Dog,53.4084394936404,-2.9789564050740864
2022-11-9,2022-11-16,47,1469478418251776 red Pomeranian,53.39817598511229,-2.933326429498834
2022-11-17,2022-11-24,14,5846881976451072 orange Bergamasco Shepherd,53.3940542292991,-2.949244633959893
2022-11-17,2022-11-24,1,3651189749055488 sky blue Australian Terrier,53.41330995113363,-2.9314799771416347
2022-11-25,2022-12-2,4,2634404553818112 cyan Cane Corso,53.37112164772871,-2.94544850499949
2022-12-11,2022-12-18,24,878383611248640 silver Telomian,53.37009991020279,-2.9224410078801384
2022-12-19,2022-12-26,31,7388354784002048 mint green Smooth Collie,53.39957177075549,-2.9235595879233642
2022-12-19,2022-12-26,13,5521477109547008 ivory Greyhound,53.4036968897111,-2.956087412501347
2022-12-27,2023-1-3,45,7762855751319552 blue Jack Russell Terrier,53.41502425292792,-2.9536221163626806
2023-1-12,2023-1-19,14,4690426476888064 green German Roughhaired Pointer,53.38900372069095,-2.938114036384036
2023-1-12,2023-1-19,4,6061772412813312 sky blue Bluetick Coonhound,53.39206501318628,-2.9261632331482588
2023-1-20,2023-1-27,14,2641444110073856 fuchsia Wirehaired Pointing Griffon,53.3869085655029,-2.9243057525281984
2023-1-28,2023-2-4,30,8068904456814592 pink Manchester Terrier,53.398823352251,-2.9811673763489352
2023-2-13,2023-2-20,20,2909494166159360 azure Newfoundland,53.395552444870766,-2.9496119339104325
2023-2-21,2023-2-28,42,8916561788141568 cyan Gull Dong,53.39336333800341,-2.930287151505013
2023-2-21,2023-2-28,15,174734914355200 olive Barbet,53.38440878800051,-2.956439606194408
2023-3-9,2023-3-16,47,705385621094400 indigo Villanuco de Las Encartaciones,53.36813026678075,-2.9398859426428317
2023-3-9,2023-3-16,48,6641083547123712 black Small Münsterländer,53.413393450606584,-2.9382359560355553
2023-3-17,2023-3-24,23,5493986445754368 yellow Chesapeake Bay Retriever,53.423698685962634,-2.9432813303510557
2023-4-2,2023-4-9,28,2902558748180480 teal Slovenský Kopov,53.39834271271105,-2.9358257802449543
2023-4-10,2023-4-17,38,7698725935775744 cyan Cairn Terrier,53.3877043014589,-2.93817131739263
2023-4-18,2023-4-25,31,1158944047235072 red Villano de Las Encartaciones,53.390943216791044,-2.9621243487407583
2023-4-18,2023-4-25,19,3417219472031744 lime Tamaskan Dog,53.37966960267395,-2.950839909344495
2023-5-4,2023-5-11,37,1738728510849024 gold Bergamasco Shepherd,53.39423695690658,-2.9468589573812096
2023-5-4,2023-5-11,4,111491994877952 tan Romanian Mioritic Shepherd Dog,53.39616292491577,-2.946063515343326
2023-5-20,2023-5-27,35,3278170836959232 violet Bavarian Mountain Hound,53.39144572049109,-2.935330586429586
2023-5-20,2023-5-27,8,2768157984948224 turquoise Dalmatian,53.40583590885329,-2.9402803305705447
2023-5-28,2023-6-4,9,2637394893340672 cyan Bernese Mountain Dog,53.37728046610434,-2.9311826213196355
2023-6-13,2023-6-20,23,6435169969897472 yellow Azawakh,53.3680358419771,-2.9690876867796305
2023-6-21,2023-6-28,31,6105447807320064 blue Chow Chow,53.37460516038535,-2.937429480249193
2023-6-29,2023-7-6,14,2129838307540992 tan Kars,53.36049816257582,-2.9566268756731233
2023-7-7,2023-7-14,26,7074452533673984 violet King Shepherd,53.36170383875035,-2.963747332057892
2023-7-7,2023-7-14,39,1635767292002304 azure Wirehaired Vizsla,53.38781869443609,-2.935091550341781
2023-7-23,2023-7-30,44,158126082883584 black Perro de Presa Mallorquin,53.403067639452395,-2.9587910463499156
2023-7-23,2023-7-30,25,6497797226364928 teal Dogo Argentino,53.38936665853817,-2.947418344654011
2023-7-31,2023-8-7,10,461929485172736 black Chien Français Tricolore,53.38981018569349,-2.9493746123253004
2023-8-16,2023-8-23,18,2610644287225856 lavender Wirehaired Vizsla,53.398880556186604,-2.9425113020001845
2023-8-24,2023-8-31,40,8634384292773888 plum Broholmer,53.410551679592096,-2.942127164072531
2023-9-1,2023-9-8,44,2549518964883456 green Ibizan Hound,53.41100678008183,-2.9419877725866854
2023-9-9,2023-9-16,22,7127181098483712 yellow Rafeiro do Alentejo,53.40364310166105,-2.951494318894902
2023-9-17,2023-9-24,39,6085525846884352 lime Griffon Nivernais,53.39484109483904,-2.9823932417519927
2023-9-25,2023-10-2,22,5797018320502784 black New Guinea Singing Dog,53.4037040386797,-2.953738687269947
2023-9-25,2023-10-2,44,6409979059765248 sky blue Bull Terrier,53.391406617599344,-2.9549094568945975
2023-10-11,2023-10-18,1,1502962692128768 plum Schapendoes,53.41914411692438,-2.9561072226861143
2023-10-19,2023-10-26,4,2407500569640960 orchid Kishu,53.40586920242367,-2.9708112526067225
2023-10-19,2023-10-26,36,4094803142770688 orchid Bearded Collie,53.37839733778411,-2.92992782323563
2023-11-4,2023-11-11,39,4156077230784512 white Lakeland Terrier,53.39047120115379,-2.913809385430227
2023-11-4,2023-11-11,40,7212947721945088 red Kai Ken,53.36917444091729,-2.9324088974522056
2023-11-20,2023-11-27,1,5024728469209088 fuchsia Schweizer Laufhund,53.38951681487766,-2.951159800874734
2023-11-28,2023-12-5,44,5796975215640576 yellow Schillerstövare,53.411649367150545,-2.948392292389485
2023-12-6,2023-12-13,25,4015427772481536 orchid Kuchi,53.40255172775993,-2.92287057343151
2023-12-6,2023-12-13,30,2993867613798400 gold Akbash,53.39106648797537,-2.946694415697152
2023-12-22,2023-12-29,5,3437466897874944 mint green Löwchen,53.410778968270684,-2.9703684693600962
2023-12-22,2023-12-29,32,6083904683376640 ivory Australian Stumpy Tail Cattle Dog,53.39455484829144,-2.9480949969646417
2024-1-7,2024-1-14,24,3160711897284608 gold Broholmer,53.3991635525463,-2.9720430115190766
2024-1-7,2024-1-14,47,2209905391960064 lavender Villano de Las Encartaciones,53.374645461897906,-2.9551374903429632
2024-1-23,2024-1-30,43,7676846959230976 teal Akita,53.39983995092835,-2.9378576627607345
2024-1-31,2024-2-7,30,4125468366209024 black Irish Setter,53.41515183505651,-2.950617380550625
2024-2-8,2024-2-15,22,5514613340766208 azure Afghan Hound,53.384201543888345,-2.9409271708591405
2024-2-16,2024-2-23,37,1653577328099328 maroon Chinese Crested Dog,53.3789051890248,-2.9291898183751073
2024-2-16,2024-2-23,39,7362810872856576 teal Ibizan Hound,53.38063884993154,-2.942307740182173
2024-2-24,2024-3-2,47,6087527221952512 lime New Guinea Singing Dog,53.39534653252501,-2.9750505900703956
2024-3-11,2024-3-18,3,7469869150765056 salmon Russian Toy,53.38776872724212,-2.9301310814323642
2024-3-11,2024-3-18,45,1353510736101376 pink Border Terrier,53.387337146893216,-2.94746969231403
2024-3-27,2024-4-3,36,2655991535501312 fuchsia Wire Fox Terrier,53.39694072914936,-2.9838784506511047
2024-3-27,2024-4-3,28,6366051851829248 ivory Greenland Dog,53.384912963255466,-2.9450395220951577
2022-1-9,2022-1-16,47,7955335681671168 gold Tibetan Terrier,53.393537261728916,-2.9478470862576387
2022-1-17,2022-1-24,32,420125941432320 turquoise Tornjak,53.39344574938854,-2.9513749579292607
2022-1-17,2022-1-24,7,8110583247273984 salmon Shar Pei,53.396195925443976,-2.9399337279174915
2022-2-2,2022-2-9,31,4848385865547776 turquoise Bruno Jura Hound,53.38233624331313,-2.944379840886427
2022-2-2,2022-2-9,46,1970684525805568 orange Polish Greyhound,53.39296013492973,-2.948196973472591
2022-2-10,2022-2-17,7,2881452767182848 pink Pachon Navarro,53.39457303439462,-2.9309008378398858
2022-2-26,2022-3-5,41,3431778142388224 fuchsia French Spaniel,53.411577809624305,-2.961667550800712
2022-3-6,2022-3-13,32,7011194405650432 orange Gascon Saintongeois,53.38986167102341,-2.9511272910795014
2022-3-6,2022-3-13,24,4978059652366336 magenta Pyrenean Sheepdog,53.40750913186151,-2.975270284250314
2022-3-14,2022-3-21,37,6228251089305600 grey Pembroke Welsh Corgi,53.39193060130701,-2.9475761074752427
2022-3-22,2022-3-29,14,3382723785785344 ivory Miniature Schnauzer,53.39888108900726,-2.9429802164078183
2022-4-7,2022-4-14,45,6879361793785856 blue Finnish Spitz,53.367950835179194,-2.947131060690367
2022-4-15,2022-4-22,22,6763336582561792 orchid Cimarrón Uruguayo,53.40547247885258,-2.9201436682669737
2022-4-15,2022-4-22,22,1910216297807872 lavender Curly-Coated Retriever,53.38566078287567,-2.9567877381052767
2022-4-23,2022-4-30,21,7189384359051264 orchid Bouvier des Flandres,53.40782703647128,-2.9395803399836495
2022-5-9,2022-5-16,10,2014247166935040 pink Dachshund,53.38596780054361,-2.9528253956274284
2022-5-9,2022-5-16,5,2918357544206336 white Alaskan Husky,53.383558957449196,-2.9656112474574456
2022-5-17,2022-5-24,10,4857172672380928 teal Pshdar Dog,53.39987434181221,-2.969877919911255
2022-6-2,2022-6-9,23,6287845241126912 purple Polish Tatra Sheepdog,53.395182446722174,-2.941260570767895
2022-6-10,2022-6-17,44,7050821277581312 turquoise Grand Anglo-Français Blanc et Orange,53.392816148260856,-2.9158617690796973
2022-6-18,2022-6-25,6,4133252868603904 magenta Dutch Shepherd,53.41700474248424,-2.97405319825873
2022-6-18,2022-6-25,11,1110105282052096 cyan Pudelpointer,53.375289228338595,-2.9594176684157674
2022-7-4,2022-7-11,33,754520422350848 indigo Perro de Presa Canario,53.42329609789061,-2.963791048443568
2022-7-4,2022-7-11,17,777828681383936 grey Glen of Imaal Terrier,53.3911876934405,-2.9560910525289046
2022-7-20,2022-7-27,7,6442469872893952 turquoise Phu Quoc Ridgeback,53.37025696588895,-2.934076533194002
2022-7-28,2022-8-4,40,8362485797093376 red Cantabrian Water Dog,53.374805225829725,-2.972229925062038
2022-8-5,2022-8-12,46,1808574567153664 salmon Jindo,53.376600818702734,-2.9340000434270905
2022-8-13,2022-8-20,38,5770099292110848 blue Canadian Eskimo Dog,53.381544295120094,-2.9375010276816056
2022-8-21,2022-8-28,45,6726858083139584 silver Dogo Guatemalteco,53.38852013857548,-2.9508474206082838
2022-8-21,2022-8-28,21,839647248777216 yellow Sloughi,53.40270348175558,-2.928655551006159
2022-8-29,2022-9-5,11,7734174119100416 maroon Cantabrian Water Dog,53.39819473894765,-2.9398384989433453
2022-9-14,2022-9-21,7,6509925291261952 orchid Indian pariah dog,53.38276033376574,-2.939281005297289
2022-9-14,2022-9-21,25,2222589634150400 white Hanover Hound,53.416501338650065,-2.9213848037127264
2022-9-22,2022-9-29,6,5594210952544256 azure Ratonero Mallorquin,53.39478984352445,-2.9305158509946523
2022-10-8,2022-10-15,41,4075487787745280 lavender Norfolk Terrier,53.40164261941847,-2.9403835135022973
2022-10-8,2022-10-15,38,9003302366740480 azure Banjara Hound,53.42009982263481,-2.9664096457585174
2022-10-24,2022-10-31,8,815483446099968 salmon Taiwan Dog,53.4205005731958,-2.9377767386449705
2022-11-1,2022-11-8,16,965452347998208 gold Poitevin,53.39853368152259,-2.950408639056377
2022-11-9,2022-11-16,29,6009442785034240 ivory Swedish Elkhound,53.38095254231868,-2.96750654287257
2022-11-9,2022-11-16,47,386515614040064 black Black Norwegian Elkhound,53.37974750658777,-2.9791268496292105
2022-11-25,2022-12-2,20,2259462133907456 grey Perro de Presa Mallorquin,53.3982171853871,-2.938842492285403
2022-11-25,2022-12-2,32,7870190322712576 white Azawakh,53.38696648136915,-2.93513345921599
2022-12-3,2022-12-10,36,3048221221847040 tan Flat-Coated Retriever,53.41514159923144,-2.9596748075520054
2022-12-19,2022-12-26,4,2824172646432768 azure Pastore della Lessinia e del Lagorai,53.38543107650024,-2.9408803230304557
2022-12-27,2023-1-3,8,928563482066944 blue Perro de Presa Canario,53.38818682767281,-2.9455756106357285
2022-12-27,2023-1-3,15,5276626021515264 cyan American Staffordshire Terrier,53.389898818839406,-2.9625892728098506
2023-1-12,2023-1-19,9,8236717339312128 lavender Mackenzie River Husky,53.39309444006645,-2.958840552303286
2023-1-12,2023-1-19,12,3758981591859200 black Barbado da Terceira,53.410175433073995,-2.9660011715890278
2023-1-28,2023-2-4,39,2676974656946176 ivory Vikhan,53.38129940155161,-2.9459257806291816
2023-1-28,2023-2-4,33,3308022650634240 mint green Romanian Mioritic Shepherd Dog,53.382890927937375,-2.940367453109957
2023-2-5,2023-2-12,46,3632268486639616 grey Norwegian Elkhound,53.38784339696908,-2.9396717817071476
2023-2-21,2023-2-28,33,7006529559461888 white Peruvian Inca Orchid,53.40767849020098,-2.916571923569677
2023-2-21,2023-2-28,9,6714312477376512 magenta English Toy Terrier,53.377434257147364,-2.9240311837734225
2023-3-1,2023-3-8,6,3136427602739200 azure Alaskan Husky,53.377445198829136,-2.940163234857323
2023-3-17,2023-3-24,47,3373342392320 azure Cirneco dell'Etna,53.39406358376992,-2.955575240491953
2023-3-25,2023-4-1,48,2960238911160320 azure Kerry Blue Terrier,53.408669389492395,-2.975944870136914
2023-4-2,2023-4-9,39,8045810568658944 silver Pharaoh Hound,53.3937650852761,-2.9202947479088834
2023-4-10,2023-4-17,10,131786130587648 violet Leonberger,53.418557796249765,-2.9671530209020602
2023-4-10,2023-4-17,16,6267937339998208 salmon Taiwan Dog,53.39296269734918,-2.9488832216089804
2023-4-26,2023-5-3,39,6189463245946880 violet Bohemian Shepherd,53.39732449544964,-2.9418356875191876
2023-4-26,2023-5-3,1,3344996035985408 green Yorkshire Terrier,53.39327046647545,-2.9404495608571324
2023-5-4,2023-5-11,30,1947533496549376 lavender Cane Corso,53.38189517035032,-2.970880908582444
2023-5-12,2023-5-19,30,7165121031831552 magenta Phalène,53.39014352104496,-2.9366946974007533
2023-5-20,2023-5-27,15,2835521239777280 fuchsia Chinese Crested Dog,53.39571952527059,-2.951563801359839
2023-6-5,2023-6-12,23,3739760774348800 salmon Samoyed,53.383027943491435,-2.9548935208205194
2023-6-13,2023-6-20,22,6892836058300416 black Boykin Spaniel,53.4037557428252,-2.957771103496839
2023-6-13,2023-6-20,11,2826199149576192 gold Greek Shepherd,53.39775766777026,-2.942916359654987
2023-6-21,2023-6-28,19,6755983028125696 violet Mudi,53.398469175344864,-2.9450024929193432
2023-6-29,2023-7-6,9,640696732090368 grey Kai Ken,53.38468164799935,-2.933290498395195
2023-7-7,2023-7-14,31,364003119333376 salmon Pointer,53.399759727272894,-2.9386460579390814
2023-7-15,2023-7-22,31,1194072064655360 gold Kerry Beagle,53.39571862331843,-2.953873129383396
2023-7-23,2023-7-30,41,1432832104726528 white Stabyhoun,53.405131628936395,-2.9319900720041687
2023-8-8,2023-8-15,10,2911870077894656 orange Czechoslovakian Wolfdog,53.404600806112406,-2.939218509886473
2023-8-8,2023-8-15,28,4701564184821760 white Welsh Terrier,53.38268660391337,-2.968309116203841
2023-8-16,2023-8-23,20,2682128879845376 lavender American Staffordshire Terrier,53.394617068182114,-2.939189534100933
2023-8-24,2023-8-31,43,5230724909105152 purple Volpino Italiano,53.38725973101257,-2.96342989571383
2023-9-9,2023-9-16,34,4089501840310272 orange Chilean Terrier,53.384788457494395,-2.981291937995593
2023-9-9,2023-9-16,29,891190597648384 gold Teddy Roosevelt Terrier,53.41017783089134,-2.9224262910252037
2023-9-25,2023-10-2,3,8907677274996736 fuchsia American Bully,53.38153339944078,-2.964480681451164
2023-10-3,2023-10-10,12,5979565883129856 plum Saint-Usuge Spaniel,53.37699217010951,-2.974489372926314
2023-10-11,2023-10-18,4,6152410244317184 magenta White Swiss Shepherd Dog,53.39312894265765,-2.949774884635417
2023-10-19,2023-10-26,31,668824831524864 azure Chinese Chongqing Dog,53.38189038752111,-2.916634739592496
2023-10-19,2023-10-26,37,6793512741765120 indigo American Bulldog,53.395495717641225,-2.9381544505265538
2023-10-27,2023-11-3,47,4337939372834816 lime Taigan,53.41995593682083,-2.9409163461749586
2023-11-12,2023-11-19,43,8440064694550528 black Mudhol Hound,53.38059730274107,-2.9450966040194544
2023-11-12,2023-11-19,31,8447417798098944 tan American Pit Bull Terrier,53.38590342316592,-2.940520250593181
2023-11-20,2023-11-27,24,2817580827934720 sky blue Grand Bleu de Gascogne,53.384053023145405,-2.9765071848393063
2023-11-28,2023-12-5,32,1615426798747648 teal Curly-Coated Retriever,53.39222015752219,-2.94931963993065
2023-12-6,2023-12-13,14,5543113439313920 teal Bernese Mountain Dog,53.375977814289264,-2.933433208150518
2023-12-22,2023-12-29,20,8469668469669888 plum Ariegeois,53.39950247142843,-2.9436728957082323
2023-12-22,2023-12-29,36,8175671329161216 cyan Northern Inuit Dog,53.393639134091224,-2.9203225040423604
2024-1-7,2024-1-14,40,4388651731517440 ivory Ratonero Bodeguero Andaluz,53.39168966799706,-2.937727731195764
2024-1-7,2024-1-14,22,6812470708535296 plum Villano de Las Encartaciones,53.40038623466032,-2.9492422632911257
2024-1-23,2024-1-30,47,8004432610459648 turquoise Poodle,53.39990060444116,-2.934877449407395
2024-1-31,2024-2-7,48,1006695931183104 sky blue Australian Cattle Dog,53.416972668525155,-2.9657433733342486
2024-1-31,2024-2-7,17,6122877336158208 salmon English Foxhound,53.39270661820231,-2.956543676313572
2024-2-16,2024-2-23,48,3641935579316224 gold Greyhound,53.391234295208974,-2.943211094913522
2024-2-16,2024-2-23,5,1870158605844480 plum Griffon Bleu de Gascogne,53.386835977660084,-2.950929874609187
2024-2-24,2024-3-2,17,4637351452082176 grey Bull Terrier,53.3939025,-2.9486548999999513
2024-3-3,2024-3-10,15,3561624149426176 gold Border Terrier,53.411187001860974,-2.9620803931700266
2024-3-19,2024-3-26,32,6063822389379072 sky blue Gascon Saintongeois,53.394336247606006,-2.9470838673299795
2024-3-19,2024-3-26,13,444925931945984 pink Ratonero Valenciano,53.40744022177049,-2.946727165701418
2024-3-27,2024-4-3,12,4884715473469440 purple Keeshond,53.39240393846984,-2.9622197953551677
2022-1-1,2022-1-8,42,2791159147528192 turquoise Rafeiro do Alentejo,53.373602046295474,-2.9617554987854646
2022-1-9,2022-1-16,31,2714176864649216 teal Boston Terrier,53.38106047775648,-2.9453067462083027
2022-1-17,2022-1-24,36,616717734641664 black Japanese Terrier,53.38721934190747,-2.9201356917699286
2022-1-25,2022-2-1,14,6018553849315328 magenta Pharaoh Hound,53.39034396233439,-2.9445815545107052
2022-2-10,2022-2-17,32,3416045668794368 plum Cavalier King Charles Spaniel,53.397988144914194,-2.9183477235496866
2022-2-10,2022-2-17,8,3618584657920000 silver Taigan,53.38882828933268,-2.9661856008184486
2022-2-26,2022-3-5,23,5921124158275584 silver Transylvanian Hound,53.389700807563244,-2.964151707156475
2022-3-6,2022-3-13,15,2779171325476864 turquoise Artois Hound,53.396619902664845,-2.9537821482700792
2022-3-6,2022-3-13,9,758217112027136 teal Russian Spaniel,53.39398616168118,-2.945064919702645
2022-3-14,2022-3-21,44,7031606489382912 maroon German Hound,53.391765621999625,-2.9792602217796684
2022-3-30,2022-4-6,17,8663367996669952 blue Norrbottenspets,53.38546654469008,-2.938144352943141
2022-3-30,2022-4-6,23,8940254264295424 fuchsia Dogo Sardesco,53.39152208466278,-2.958305714308949
2022-4-15,2022-4-22,32,6181077557182464 black Barbet,53.39125549040175,-2.942007493803658
2022-4-15,2022-4-22,20,8006303773360128 salmon Danish-Swedish Farmdog,53.401601572201955,-2.9315172856609024
2022-5-1,2022-5-8,16,3226368275906560 magenta Bernese Mountain Dog,53.38568335262459,-2.950553618645131
2022-5-9,2022-5-16,9,8865330107514880 magenta Aidi,53.393913413623096,-2.9491652183144197
2022-5-17,2022-5-24,28,2764563151847424 azure Black Norwegian Elkhound,53.4079441952943,-2.9573445848494657
2022-5-17,2022-5-24,6,7649862214483968 turquoise Braque du Bourbonnais,53.40727605833562,-2.9293121443009795
2022-6-2,2022-6-9,17,4214538865999872 pink Cimarrón Uruguayo,53.40910229070525,-2.970860808066732
2022-6-10,2022-6-17,27,4630227258966016 green American Bully,53.40202997695851,-2.9268842955196988
2022-6-18,2022-6-25,44,8830937349488640 white Austrian Black and Tan Hound,53.39621634342634,-2.9497104077294125
2022-6-18,2022-6-25,6,3881173975564288 purple Mahratta Greyhound,53.391604029797385,-2.950772564648787
2022-7-4,2022-7-11,19,5266663721140224 orchid Styrian Coarse-haired Hound,53.4028219025127,-2.9781592788086755
2022-7-12,2022-7-19,31,169084385755136 lime Pampas Deerhound,53.419706684296756,-2.942913666943923
2022-7-20,2022-7-27,23,835775946031104 ivory Galician Shepherd Dog,53.420393478165956,-2.9376112338781013
2022-7-28,2022-8-4,24,411233679310848 yellow Burgos Pointer,53.410796068137905,-2.9634270413303057
2022-8-5,2022-8-12,17,4949739325882368 ivory Cardigan Welsh Corgi,53.376586470836926,-2.974165120818043
2022-8-13,2022-8-20,13,5104645175246848 tan Slovakian Wirehaired Pointer,53.38523194793495,-2.9735233724798036
2022-8-13,2022-8-20,6,5619729358127104 black Gull Dong,53.39341308621246,-2.949383349279401
2022-8-21,2022-8-28,15,8261670428213248 azure Chihuahua,53.39283871325551,-2.942377391701939
2022-9-6,2022-9-13,41,8013625247662080 teal Griffon Fauve de Bretagne,53.391486947457025,-2.9352775492260434
2022-9-14,2022-9-21,7,8049673203875840 sky blue Carpathian Shepherd Dog,53.39362672604377,-2.9684972637060127
2022-9-14,2022-9-21,5,2336454323732480 violet Golden Retriever,53.40418093611541,-2.9661719606502857
2022-9-30,2022-10-7,22,2313893946851328 red Old Danish Pointer,53.388851386287946,-2.9403339228305185
2022-10-8,2022-10-15,46,8147098356678656 red Entlebucher Mountain Dog,53.377548153854285,-2.9468803905583627
2022-10-16,2022-10-23,25,1527007103942656 orchid Slovenský Cuvac,53.408970503718095,-2.930437831042809
2022-10-24,2022-10-31,45,8533568347176960 fuchsia Molossus of Epirus,53.395057891115556,-2.964929950036435
2022-10-24,2022-10-31,48,330683102789632 plum Schapendoes,53.379212073531676,-2.951640123145353
2022-11-9,2022-11-16,17,4736951418617856 silver Sinhala Hound,53.380128597769776,-2.941882350433616
2022-11-17,2022-11-24,25,8073557428928512 turquoise Dogo Argentino,53.406906293860395,-2.9521270537177315
2022-11-25,2022-12-2,12,8813879383556096 lime Podenco Canario,53.379780938474944,-2.9547372290674048
2022-11-25,2022-12-2,4,8635904400818176 orchid Old English Sheepdog,53.406588822143476,-2.9525820706026025
2022-12-11,2022-12-18,46,7193758166679552 red Levriero Sardo,53.39808565350853,-2.9582902390957315
2022-12-11,2022-12-18,2,2037691635990528 cyan German Shorthaired Pointer,53.384474660197135,-2.950463553838972
2022-12-19,2022-12-26,36,3786194525618176 gold Dandie Dinmont Terrier,53.42919428722238,-2.945787640720596
2022-12-27,2023-1-3,21,8559929073860608 yellow Scottish Deerhound,53.3899355342142,-2.941028095118895
2023-1-4,2023-1-11,21,7266873534054400 mint green Terrier Brasileiro,53.39643740457059,-2.9637929999169046
2023-1-12,2023-1-19,21,257075609337856 salmon Giant Schnauzer,53.39467314518418,-2.960952857616121
2023-1-20,2023-1-27,24,7544957944463360 plum Aidi,53.39673067425556,-2.9432924601628656
2023-1-28,2023-2-4,34,4993814877962240 turquoise Kuchi,53.42494911903662,-2.9663944891273104
2023-2-13,2023-2-20,7,1859337817423872 sky blue Kaikadi,53.39303359416578,-2.948172148934418
2023-2-21,2023-2-28,44,1943371973132288 cyan Trigg Hound,53.39129233392179,-2.982233359314023
2023-3-1,2023-3-8,17,4262856176435200 lime Griffon Fauve de Bretagne,53.373148484871386,-2.9624360087411787
2023-3-9,2023-3-16,2,1215113298182144 red German Spaniel,53.39027823049126,-2.957602220252852
2023-3-17,2023-3-24,32,324441267503104 tan Whippet,53.39836609815251,-2.9514312244398297
2023-3-17,2023-3-24,28,3727422149099520 white Basque Shepherd Dog,53.37000348270147,-2.9241923062925252
2023-4-2,2023-4-9,11,736840611004416 purple Boerboel,53.392592062242684,-2.950568565099502
2023-4-10,2023-4-17,22,110832994222080 grey Pshdar Dog,53.39398398567044,-2.948398906039074
2023-4-10,2023-4-17,38,3980921818578944 turquoise Pharaoh Hound,53.40861237608595,-2.9470005250805116
2023-4-26,2023-5-3,25,3824992368197632 tan Wire Fox Terrier,53.42763788794516,-2.939379841271716
2023-5-4,2023-5-11,13,7662405775523840 silver Chortai,53.397822360567666,-2.9229104702019413
2023-5-4,2023-5-11,20,3326383266725888 gold Northern Inuit Dog,53.429121980959124,-2.9460117927451392
2023-5-12,2023-5-19,39,1129282113896448 yellow Polish Hound,53.410429862976635,-2.966241342375156
2023-5-20,2023-5-27,21,6885509972361216 blue Caucasian Shepherd Dog,53.3824909250261,-2.9361921060402665
2023-6-5,2023-6-12,34,3043657691168768 purple Billy,53.393830855953325,-2.945431896188211
2023-6-5,2023-6-12,15,1253012811022336 magenta Field Spaniel,53.39408361781794,-2.943168473715218
2023-6-13,2023-6-20,26,271255714398208 ivory Romanian Mioritic Shepherd Dog,53.41259655421927,-2.933662051596002
2023-6-21,2023-6-28,2,1089366600450048 gold Portuguese Podengo,53.38561282412094,-2.9334589172045753
2023-6-29,2023-7-6,31,4289926052970496 silver Mountain Cur,53.37899923886119,-2.966074408100667
2023-7-7,2023-7-14,23,4050133085847552 sky blue Volpino Italiano,53.38931356856987,-2.9370168079722134
2023-7-23,2023-7-30,46,3120585578119168 blue Basque Shepherd Dog,53.38002863332253,-2.940085427076383
2023-7-31,2023-8-7,31,643990649044992 silver Cesky Fousek,53.402048324101095,-2.9173982238942244
2023-7-31,2023-8-7,3,1783793115463680 indigo Norwegian Buhund,53.3765759473846,-2.969314550925219
2023-8-8,2023-8-15,13,7909248096796672 mint green Staffordshire Bull Terrier,53.36265374111464,-2.9505583917249396
2023-8-24,2023-8-31,17,5306502826950656 white White Shepherd,53.42019779609566,-2.9718157101602856
2023-8-24,2023-8-31,13,7570762577739776 red Karelian Bear Dog,53.37556205076797,-2.9684077653028
2023-9-9,2023-9-16,43,1134554341441536 blue Griffon Nivernais,53.40264835143253,-2.9802138936098572
2023-9-17,2023-9-24,30,2371590121586688 pink Cavalier King Charles Spaniel,53.40256494027843,-2.9391266931295377
2023-9-17,2023-9-24,45,6436214215278592 teal Barbet,53.38849297964546,-2.9320893468224085
2023-9-25,2023-10-2,5,5651270182371328 salmon Old English Sheepdog,53.3950660737178,-2.9486182745202996
2023-10-3,2023-10-10,20,890805361311744 fuchsia American Staffordshire Terrier,53.38895877916922,-2.9363484104724193
2023-10-11,2023-10-18,22,7691969471971328 violet Havanese,53.392285632246534,-2.981479952995983
2023-10-19,2023-10-26,43,2919043291938816 red Australian Stumpy Tail Cattle Dog,53.394478767885104,-2.9570528514534544
2023-10-27,2023-11-3,13,6575980703383552 salmon Poitevin,53.409688139203844,-2.9598178367735954
2023-11-4,2023-11-11,18,5683971633446912 silver Bhotia,53.39373227525513,-2.9492674941024006
2023-11-20,2023-11-27,42,1399639490166784 mint green Picardy Spaniel,53.408653719009585,-2.9211530505247083
2023-11-28,2023-12-5,1,3493930817552384 lavender Norfolk Terrier,53.39906313266267,-2.950118064134017
2023-11-28,2023-12-5,29,3994952868560896 violet Burgos Pointer,53.40027483910465,-2.9454207236560705
2023-12-14,2023-12-21,13,6869042902073344 red Dogue Brasileiro,53.370661283692364,-2.9443245187255798
2023-12-14,2023-12-21,43,5069415366262784 grey Artois Hound,53.37904918723219,-2.9515558554329573
2023-12-30,2024-1-6,3,3397061426806784 maroon Bakharwal dog,53.40193192965103,-2.9302923956952327
2024-1-7,2024-1-14,38,5103795029671936 silver Norwich Terrier,53.40773188208062,-2.979452780176871
2024-1-15,2024-1-22,35,4886077938597888 magenta Catalan Sheepdog,53.410922265535945,-2.94194393997509
2024-1-15,2024-1-22,22,5213199253110784 olive Russian Toy,53.377472090668014,-2.950009505428625
2024-1-31,2024-2-7,37,4888326758727680 fuchsia Huntaway,53.38616066256458,-2.9489110855364515
2024-1-31,2024-2-7,5,7070394437599232 mint green Sardinian Shepherd Dog,53.38019325041634,-2.939242430383956
2024-2-8,2024-2-15,16,624971860672512 ivory Kokoni,53.3973145757433,-2.932342681777527
2024-2-24,2024-3-2,6,1663452626026496 mint green Segugio Maremmano,53.39713339399425,-2.9539428483599295
2024-3-3,2024-3-10,9,2134524374810624 orchid Phalène,53.376550014264076,-2.934594724994099
2024-3-3,2024-3-10,39,737026370437120 plum Chinese Chongqing Dog,53.38537707612552,-2.9569588502761235
2024-3-11,2024-3-18,41,6663095835426816 indigo Silken Windhound,53.38800503703741,-2.9730991864820453
2024-3-27,2024-4-3,3,5982210983198720 lime Ratonero Valenciano,53.419961549962466,-2.948656298672745
2024-4-4,2024-4-11,11,5760084208517120 grey Australian Kelpie,53.39663247424244,-2.9572963941930084
2022-1-9,2022-1-16,12,937609956163584 turquoise Braque Francais,53.41177117040707,-2.942623219133452
2022-1-17,2022-1-24,36,2526403264249856 yellow Thai Bangkaew Dog,53.3710183940128,-2.921976707439285
2022-1-25,2022-2-1,12,3525311199182848 green Standard Schnauzer,53.39901119184425,-2.9164977917129136
2022-2-2,2022-2-9,22,3086142389878784 fuchsia Cane Corso,53.3929597021197,-2.9765069075886004
2022-2-2,2022-2-9,18,4168022551953408 mint green Keeshond,53.35913471825816,-2.955405234258592
2022-2-10,2022-2-17,4,7617488955113472 green Norfolk Terrier,53.42544766960511,-2.9645786420140894
2022-2-26,2022-3-5,23,5365017941639168 green Telomian,53.41841891005949,-2.9655994904882164
2022-2-26,2022-3-5,48,2002617492307968 green Doberman Pinscher,53.395113967555716,-2.9483322391076854
2022-3-6,2022-3-13,3,8058076997353472 olive Giant Schnauzer,53.40612131425593,-2.918512776959801
2022-3-22,2022-3-29,6,1495972404264960 lavender Black and Tan Coonhound,53.377886164987906,-2.925293314862415
2022-3-22,2022-3-29,45,3618997622800384 fuchsia Old English Terrier,53.40785927158791,-2.9676922971904105
2022-4-7,2022-4-14,28,4016679577190400 white Grand Anglo-Français Blanc et Noir,53.38881943578532,-2.9570821454678935
2022-4-15,2022-4-22,42,1721216115146752 pink Alano Español,53.398594766428,-2.94149438225827
2022-4-15,2022-4-22,28,6797659411054592 black Bosnian Coarse-haired Hound,53.3941004373118,-2.9489093595940403
2022-5-1,2022-5-8,31,2025887467831296 orange Norfolk Terrier,53.39686606374222,-2.9439281526599643
2022-5-1,2022-5-8,37,3236978977931264 purple Black Norwegian Elkhound,53.395961498962684,-2.9498526437924966
2022-5-17,2022-5-24,37,8419345422090240 grey Ratonero Mallorquin,53.39375221545121,-2.950493498196238
2022-5-17,2022-5-24,42,2699651155230720 fuchsia Cesky Terrier,53.402727280860056,-2.9708573331940897
2022-6-2,2022-6-9,24,991977514467328 mint green Northern Inuit Dog,53.3986493039718,-2.969294664802078
2022-6-10,2022-6-17,15,2237469034545152 cyan Rat Terrier,53.39316611036429,-2.9637709237134686
2022-6-18,2022-6-25,35,357155167272960 green Berger Picard,53.39159772636017,-2.9476674420367317
2022-6-26,2022-7-3,45,1058144300040192 azure German Spitz,53.41118269085783,-2.9525465601415135
2022-6-26,2022-7-3,40,497990280151040 silver Miniature American Shepherd,53.3953505894495,-2.9472539152706076
2022-7-4,2022-7-11,12,2811026246467584 violet Finnish Lapphund,53.36198322074677,-2.952845764809922
2022-7-20,2022-7-27,45,334043153432576 sky blue Landseer,53.417113780469755,-2.923234814144962
2022-7-28,2022-8-4,31,1500448127188992 tan Basset Hound,53.36097784355272,-2.962626051260372
2022-8-5,2022-8-12,27,957373306896384 violet Grand Anglo-Français Tricolore,53.42035643930873,-2.949604572159501
2022-8-13,2022-8-20,34,6420373570584576 white American Bulldog,53.42323940787527,-2.9570976420191073
2022-8-21,2022-8-28,15,4979200599523328 red Cardigan Welsh Corgi,53.403079041564716,-2.946821111295776
2022-8-21,2022-8-28,43,29044550664192 sky blue English Springer Spaniel,53.39729388140363,-2.936334353005236
2022-8-29,2022-9-5,9,6079858480250880 gold Tamaskan Dog,53.39403998203854,-2.9482856433826328
2022-9-6,2022-9-13,7,6832451059974144 pink Manchester Terrier,53.411586257964956,-2.967156421989557
2022-9-22,2022-9-29,29,6420306652561408 turquoise East European Shepherd,53.382406153992925,-2.959915043753199
2022-9-30,2022-10-7,21,967809284702208 pink Icelandic Sheepdog,53.40269923165189,-2.9673377667847944
2022-10-8,2022-10-15,7,3517236390133760 plum Kintamani,53.39286563499715,-2.9509280340444093
2022-10-8,2022-10-15,39,5200598844571648 purple Volpino Italiano,53.40714519557253,-2.9371354947543296
2022-10-24,2022-10-31,45,8297486961606656 red Perro de Presa Canario,53.4001522406574,-2.97073927610586
2022-10-24,2022-10-31,43,1217413079105536 maroon Wire Fox Terrier,53.382815684729174,-2.952146371271283
2022-11-9,2022-11-16,35,3614819823386624 white Staffordshire Bull Terrier,53.3850034025296,-2.960495029647859
2022-11-9,2022-11-16,8,5319141607079936 magenta Segugio Maremmano,53.38314455651075,-2.9563956534157114
2022-11-17,2022-11-24,43,1398344685453312 blue Thai Ridgeback,53.39238769166326,-2.943565224067129
2022-12-3,2022-12-10,13,8664826748338176 indigo Plummer Terrier,53.42480205175511,-2.9459225848373762
2022-12-11,2022-12-18,24,2825059244703744 sky blue Cirneco dell'Etna,53.401627299750295,-2.967157326688948
2022-12-19,2022-12-26,9,2957587953745920 purple Rhodesian Ridgeback,53.39455453284091,-2.974822242645814
2022-12-27,2023-1-3,18,8560678916849664 salmon West Siberian Laika,53.375213690253645,-2.923605443439669
2023-1-4,2023-1-11,16,6475122577768448 cyan West Siberian Laika,53.40812453556142,-2.9724643144153333
2023-1-12,2023-1-19,40,2114831536619520 indigo Kishu,53.373292626010965,-2.925471264845669
2023-1-12,2023-1-19,16,3110058200137728 purple Vizsla,53.38579187389141,-2.9442249817885795
2023-1-20,2023-1-27,45,373410481831936 grey Ariegeois,53.39325803658634,-2.9491681369901244
2023-1-28,2023-2-4,2,3729000457306112 orchid Portuguese Water Dog,53.42287116442191,-2.9484449799165304
2023-2-5,2023-2-12,47,8534317904953344 gold Kerry Beagle,53.379092274313855,-2.943264164264974
2023-2-13,2023-2-20,14,8874057598500864 blue Chien Français Blanc et Orange,53.379939696118726,-2.9474513966956692
2023-3-1,2023-3-8,43,5719169993539584 tan Swedish Vallhund,53.390452579636666,-2.9645561935924434
2023-3-1,2023-3-8,10,1588893291905024 cyan Greater Swiss Mountain Dog,53.40367356043656,-2.931795668353516
2023-3-9,2023-3-16,39,5658939863597056 ivory Jagdterrier,53.40090322077917,-2.9515970615383367
2023-3-17,2023-3-24,41,1399575654957056 fuchsia Gończy Polski,53.415209616400084,-2.9536553661936296
2023-4-2,2023-4-9,31,8777039708422144 magenta Leonberger,53.37495115881741,-2.9213018242213593
2023-4-10,2023-4-17,42,1427982606401536 lime Lupo Italiano,53.392759812662874,-2.9272022664059705
2023-4-10,2023-4-17,46,2961919111593984 turquoise Blue Lacy,53.398975811184435,-2.936897086191834
2023-4-26,2023-5-3,13,3154748643475456 olive Jack Russell Terrier,53.39554894517512,-2.913150659962753
2023-5-4,2023-5-11,25,2371912705507328 orchid Lagotto Romagnolo,53.387838793500485,-2.94930405113314
2023-5-12,2023-5-19,2,4174073215057920 purple Pointer,53.416804329466025,-2.936016708250918
2023-5-12,2023-5-19,27,7855102792564736 purple Blue Picardy Spaniel,53.37319271414947,-2.9547585608834197
2023-5-20,2023-5-27,35,6505325049937920 grey Havanese,53.395567544480784,-2.966370409984961
2023-6-5,2023-6-12,14,7492742370295808 green German Spaniel,53.39037550120312,-2.9714426933387585
2023-6-13,2023-6-20,29,4844551921467392 pink Finnish Spitz,53.390946829802814,-2.9498009181021416
2023-6-13,2023-6-20,40,2458047830032384 yellow Phu Quoc Ridgeback,53.40910965260536,-2.9341601892163
2023-6-29,2023-7-6,11,3466779571519488 lavender Sinhala Hound,53.39651515339819,-2.9467662685746063
2023-7-7,2023-7-14,42,8998063941091328 purple Thai Bangkaew Dog,53.40766493276596,-2.9452567008154347
2023-7-15,2023-7-22,37,8211033615237120 orange Toy Fox Terrier,53.42106243690046,-2.9563395558744787
2023-7-23,2023-7-30,7,858476699975680 grey Phu Quoc Ridgeback,53.3783964980404,-2.938141983481387
2023-7-31,2023-8-7,47,5461559803379712 fuchsia Bichon Frisé,53.40635858372736,-2.9806203364087196
2023-8-8,2023-8-15,34,486953218736128 silver Brussels Griffon,53.39575739286405,-2.943564550462497
2023-8-16,2023-8-23,24,6213504950337536 azure Blue Picardy Spaniel,53.40052383833408,-2.9430187481470966
2023-8-24,2023-8-31,3,3639673125601280 lime Polish Tatra Sheepdog,53.39193232394347,-2.9396257894380824
2023-8-24,2023-8-31,25,2776851026018304 gold Otterhound,53.393777915046535,-2.9524766548738626
2023-9-1,2023-9-8,16,8691359303073792 black English Mastiff,53.41581009202434,-2.9756580076901855
2023-9-9,2023-9-16,20,4267012452777984 pink German Spaniel,53.40358555608539,-2.918365828316041
2023-9-25,2023-10-2,14,3590601419259904 orchid American Cocker Spaniel,53.38458061269871,-2.9555682367779355
2023-10-3,2023-10-10,35,7460228916314112 sky blue Chow Chow,53.39017602472602,-2.9701577215022326
2023-10-11,2023-10-18,34,4070867743014912 blue Glen of Imaal Terrier,53.41672582360342,-2.9382721558688445
2023-10-11,2023-10-18,21,6590095012397056 silver Anglo-Français de Petite Vénerie,53.37299217042121,-2.9476026203743686
2023-10-27,2023-11-3,45,6867977567731712 tan Bedlington Terrier,53.38216416790005,-2.945245010662802
2023-10-27,2023-11-3,8,3437171872628736 mint green Pumi,53.37227185186189,-2.9771839152211896
2023-11-12,2023-11-19,39,2701742925938688 teal Lagotto Romagnolo,53.391473794865554,-2.95815509126885
2023-11-20,2023-11-27,1,7648325918523392 black Schweizerischer Niederlaufhund,53.39179731519223,-2.962546688818634
2023-11-20,2023-11-27,12,4363636734689280 ivory Stabyhoun,53.393257211122105,-2.9501710079982786
2023-12-6,2023-12-13,16,8083100210823168 black Airedale Terrier,53.38429091110533,-2.9257776822593087
2023-12-14,2023-12-21,7,3989443205660672 violet Shikoku,53.3893378235897,-2.953702933568593
2023-12-14,2023-12-21,3,6590766128300032 gold Grand Anglo-Français Tricolore,53.386871558521214,-2.9562406780136143
2023-12-22,2023-12-29,28,5579928240128000 indigo German Roughhaired Pointer,53.386682352908295,-2.966946668105038
2023-12-30,2024-1-6,6,1613327235022848 mint green East European Shepherd,53.40396600714559,-2.9219771747272034
2024-1-15,2024-1-22,44,1059460571201536 teal Bucovina Shepherd Dog,53.42324376329211,-2.9471205304033674
2024-1-23,2024-1-30,20,4976986449510400 violet Galgo Español,53.37769187845818,-2.9751862642530114
2024-1-31,2024-2-7,36,6169980523511808 turquoise Karakachan dog,53.39030759226574,-2.9438066064103623
2024-2-8,2024-2-15,15,6428094174855168 teal Gull Dong,53.40281191685098,-2.9306628840671465
2024-2-8,2024-2-15,19,5968586099130368 lavender Welsh Springer Spaniel,53.3789081420652,-2.9545458065537105
2024-2-24,2024-3-2,23,4310461497475072 red Golden Retriever,53.40116644848009,-2.943266121179022
2024-3-3,2024-3-10,41,8204889339461632 salmon Berger Picard,53.39631875390816,-2.9584352245698256
2024-3-3,2024-3-10,31,893535326830592 turquoise Maremmano-Abruzzese Sheepdog,53.363557995824024,-2.9613464712957693
2024-3-19,2024-3-26,26,4293435095777280 green Ibizan Hound,53.399085252201864,-2.9532840243729197
2024-3-19,2024-3-26,33,6263996145467392 maroon Swedish Lapphund,53.39162082620815,-2.9490180344924966
2024-4-4,2024-4-11,32,1208311940644864 olive Blue Picardy Spaniel,53.393947974914596,-2.9476350433487823
2022-1-1,2022-1-8,33,1806179355328512 green Italian Greyhound,53.37611532333721,-2.934492417182355
2022-1-9,2022-1-16,38,704876212387840 azure Pyrenean Mastiff,53.40803052179372,-2.9238060642766186
2022-1-25,2022-2-1,5,7576337340432384 red Kerry Blue Terrier,53.3885263019989,-2.9299251426919
2022-2-2,2022-2-9,36,2389691529691136 orchid West Highland White Terrier,53.39168426061372,-2.947356920442189
2022-2-2,2022-2-9,35,8934776966742016 lavender Bluetick Coonhound,53.396163442072016,-2.958867050902768
2022-2-18,2022-2-25,22,2928777598337024 fuchsia Japanese Terrier,53.38841118489409,-2.953913031818388
2022-2-18,2022-2-25,23,3381367855382528 gold Poodle,53.3897338581055,-2.9476440769871033
2022-3-6,2022-3-13,19,5565356619857920 violet Cursinu,53.39321519332378,-2.940750595578379
2022-3-6,2022-3-13,2,3132887851335680 pink English Setter,53.40491470056916,-2.979039485259591
2022-3-14,2022-3-21,32,5527066432765952 purple Mahratta Greyhound,53.40223502528072,-2.942992563548728
2022-3-22,2022-3-29,4,3536867760799744 grey Taiwan Dog,53.402914783779494,-2.961617504184005
2022-4-7,2022-4-14,6,8018891431215104 lavender Akita,53.38978127821427,-2.9515278158172578
2022-4-15,2022-4-22,15,8867121958223872 orchid Australian Stumpy Tail Cattle Dog,53.39433724060899,-2.9471399647640055
2022-4-23,2022-4-30,15,4126027053793280 orange Bullmastiff,53.396230060014524,-2.950686480703439
2022-4-23,2022-4-30,19,5613958241189888 silver Caucasian Shepherd Dog,53.4035938735796,-2.924716000325475
2022-5-1,2022-5-8,33,1929044184530944 violet Northern Inuit Dog,53.3872430954381,-2.9267373741279243
2022-5-9,2022-5-16,21,7090808322785280 purple Yakutian Laika,53.42313899860031,-2.9539531163630954
2022-5-17,2022-5-24,24,3059355431731200 maroon Molossus of Epirus,53.39540861310571,-2.9524889912617027
2022-5-25,2022-6-1,32,6026811538407424 black Rhodesian Ridgeback,53.40702287739094,-2.9776015130833002
2022-6-10,2022-6-17,27,3899995113652224 black Kombai,53.39704564831008,-2.94739840646605
2022-6-10,2022-6-17,3,9001923873079296 lavender Old Danish Pointer,53.39163942224561,-2.947399433075816
2022-6-18,2022-6-25,27,7883460263804928 tan Finnish Spitz,53.40280073107539,-2.925490893084884
2022-6-26,2022-7-3,36,7005118459281408 green West Highland White Terrier,53.368111294166034,-2.9269118157690173
2022-7-12,2022-7-19,5,7544470560047104 tan Bull Terrier,53.392680541878434,-2.9474968303644573
2022-7-12,2022-7-19,27,4862436358225920 black Rhodesian Ridgeback,53.39099035996497,-2.9461492941073857
2022-7-28,2022-8-4,8,4851109879349248 red English Foxhound,53.3958136508349,-2.953135883106029
2022-8-5,2022-8-12,18,476888564760576 grey Kerry Beagle,53.39751286964561,-2.9541046303735357
2022-8-5,2022-8-12,26,2767701711781888 violet Ibizan Hound,53.3934828791227,-2.94175438681998
2022-8-21,2022-8-28,24,8966626233810944 mint green Hygen Hound,53.37487371828807,-2.935083549291221
2022-8-21,2022-8-28,13,7678943157026816 purple Grand Anglo-Français Blanc et Noir,53.37198787248393,-2.959790339551546
2022-9-6,2022-9-13,42,8763756179881984 cyan Saint Hubert Jura Hound,53.38970558605737,-2.965918800281088
2022-9-14,2022-9-21,10,5027014442483712 salmon Dingo,53.37884815030846,-2.955106892348681
2022-9-22,2022-9-29,6,1395645113958400 tan Bruno Jura Hound,53.42943405648945,-2.9482890425540518
2022-9-22,2022-9-29,6,3199178570203136 pink Swedish White Elkhound,53.382872967433684,-2.9402576455889857
2022-10-8,2022-10-15,2,5725874242453504 ivory Brussels Griffon,53.3644338335029,-2.9464438262490376
2022-10-8,2022-10-15,3,778339230941184 yellow Miniature Schnauzer,53.41010700843953,-2.938746871045055
2022-10-24,2022-10-31,45,8750216853323776 maroon Carea Castellano Manchego,53.38786599698422,-2.9200650648489272
2022-10-24,2022-10-31,8,6889333743157248 blue White Swiss Shepherd Dog,53.393887346807574,-2.9362880542836365
2022-11-9,2022-11-16,41,4635953704468480 pink Kangal Shepherd Dog,53.393495478709426,-2.919983878944663
2022-11-9,2022-11-16,47,1079720068251648 orchid Villano de Las Encartaciones,53.39404968831593,-2.951875338175114
2022-11-17,2022-11-24,7,2194975718637568 lavender Chien Français Blanc et Orange,53.38128860576899,-2.9400838262655498
2022-11-25,2022-12-2,3,2446709139439616 gold Alpine Dachsbracke,53.38528507383511,-2.949816061201318
2022-12-11,2022-12-18,9,5955034674102272 turquoise Sealyham Terrier,53.39125525274597,-2.9405134959112047
2022-12-19,2022-12-26,31,3128869729075200 lavender West Highland White Terrier,53.418697586074046,-2.9418919570530306
2022-12-27,2023-1-3,36,6898700173443072 lavender Tibetan Terrier,53.3892328412627,-2.94933749665131
2023-1-4,2023-1-11,32,6111763355402240 plum Phalène,53.39898329393126,-2.9535905012219246
2023-1-12,2023-1-19,47,7218533222055936 indigo Phalène,53.374637170390535,-2.9496116112957225
2023-1-12,2023-1-19,23,5841379013951488 plum Shih Tzu,53.40286610080628,-2.9294568457213472
2023-1-28,2023-2-4,2,4020193642676224 cyan Barbado da Terceira,53.396022769816426,-2.9822319579144505
2023-1-28,2023-2-4,45,8966253630717952 cyan Catalan Sheepdog,53.36723793060603,-2.958803672695808
2023-2-5,2023-2-12,11,2131641048760320 cyan Karst Shepherd,53.394382957858596,-2.948709673999474
2023-2-21,2023-2-28,26,7084655882797056 black Barbet,53.412154620066346,-2.9525025497039223
2023-3-1,2023-3-8,11,1283049463480320 teal Blue Lacy,53.42020984694765,-2.9289566294643237
2023-3-1,2023-3-8,46,1620591262040064 salmon Porcelaine,53.38840860854949,-2.9610203863649076
2023-3-17,2023-3-24,34,7962621324034048 red Scottish Deerhound,53.41892669913489,-2.9455403104193465
2023-3-25,2023-4-1,6,2198444766658560 azure Grand Basset Griffon Vendéen,53.39840241561638,-2.9545367713783435
2023-3-25,2023-4-1,30,1216861488283648 silver Hovawart,53.372678934059245,-2.924092050465106
2023-4-2,2023-4-9,43,2802438362890240 lime Seppala Siberian Sleddog,53.38648248952344,-2.928065064741645
2023-4-10,2023-4-17,27,1236637893787648 plum English Foxhound,53.4169022543347,-2.9301137763657152
2023-4-18,2023-4-25,7,8085938628460544 violet Ibizan Hound,53.419349429586255,-2.952505868361527
2023-4-26,2023-5-3,14,8583175229931520 black English Toy Terrier,53.397319156862515,-2.9358123993052914
2023-5-12,2023-5-19,33,7031564063997952 orchid Bergamasco Shepherd,53.41096292022521,-2.9247450705673828
2023-5-20,2023-5-27,40,4451739075870720 gold Whippet,53.40761395339392,-2.958485165007346
2023-5-20,2023-5-27,17,5951786779148288 orchid Drever,53.40199074197033,-2.953640297517154
2023-6-5,2023-6-12,7,3984416330219520 orange Dalmatian,53.38348811215451,-2.943931343443751
2023-6-13,2023-6-20,28,4974711402397696 sky blue Lancashire Heeler,53.37362257930235,-2.9195970364352206
2023-6-21,2023-6-28,17,4349078825598976 magenta Mountain Feist,53.37550774073126,-2.966268896541578
2023-6-29,2023-7-6,14,7558693455396864 tan Telomian,53.416844183140334,-2.943329546264181
2023-6-29,2023-7-6,2,209674162929664 lavender Border Collie,53.370252849874774,-2.9442677469651244
2023-7-15,2023-7-22,30,783709110272000 maroon Molossus of Epirus,53.39263817291404,-2.931391120103399
2023-7-15,2023-7-22,13,8893367440113664 violet Sporting Lucas Terrier,53.40080708065169,-2.9412941267698898
2023-7-23,2023-7-30,27,3659695187296256 red Ariegeois,53.41168475805906,-2.9232594609762828
2023-7-31,2023-8-7,35,4241655081205760 olive Coton de Tulear,53.39684172362262,-2.9760522240219416
2023-8-8,2023-8-15,8,6028228204429312 lavender Dunker,53.39091045738633,-2.9590691606458677
2023-8-16,2023-8-23,12,4353736696659968 maroon German Spitz,53.39101194250027,-2.9398393196444204
2023-9-1,2023-9-8,21,8322960028860416 blue Russian Toy,53.369978587986196,-2.939715064046709
2023-9-9,2023-9-16,41,2571128444813312 red Grand Anglo-Français Blanc et Orange,53.40976837705881,-2.966994562896957
2023-9-9,2023-9-16,38,5380778835836928 sky blue Patterdale Terrier,53.40435553742342,-2.9508610795062395
2023-9-25,2023-10-2,26,8284116919255040 red Pražský Krysařík,53.38731386153599,-2.9695350286739313
2023-10-3,2023-10-10,20,3819964555329536 teal English Mastiff,53.384318735195095,-2.9655698576490295
2023-10-11,2023-10-18,46,8611474440192 magenta Styrian Coarse-haired Hound,53.37805872273485,-2.976432349714514
2023-10-11,2023-10-18,47,3674105622560768 azure Polish Tatra Sheepdog,53.40483511611957,-2.940190234614306
2023-10-19,2023-10-26,46,6299802163740672 orange Cretan Hound,53.38174889061446,-2.9408656584248547
2023-10-27,2023-11-3,48,7336133094539264 azure Old English Terrier,53.41851046421475,-2.93794352345526
2023-11-12,2023-11-19,38,8500843122786304 azure Wire Fox Terrier,53.394640985507394,-2.9465604383839263
2023-11-12,2023-11-19,28,4522005298675712 magenta Indian pariah dog,53.39417629424222,-2.964216281554286
2023-11-28,2023-12-5,17,5079487565791232 azure Segugio dell'Appennino,53.40410022030468,-2.946630297540878
2023-11-28,2023-12-5,19,3316911894953984 gold Slovakian Wirehaired Pointer,53.39466437195285,-2.9496952907717287
2023-12-6,2023-12-13,12,5130826100506624 turquoise Banjara Hound,53.39054776583856,-2.9156826680140284
2023-12-14,2023-12-21,9,458690727510016 plum Gascon Saintongeois,53.39656374430323,-2.923200246389115
2023-12-22,2023-12-29,17,8632815386099712 red Jagdterrier,53.38976677134755,-2.948544197256524
2023-12-30,2024-1-6,38,6257821454696448 fuchsia Spanish Water Dog,53.39889487366869,-2.955828825254571
2024-1-15,2024-1-22,14,454895798845440 tan Ratonero Valenciano,53.39330268388055,-2.9503709576275696
2024-1-23,2024-1-30,34,4295128388730880 magenta Pachon Navarro,53.40737530132964,-2.945316492536108
2024-1-23,2024-1-30,42,1513121476771840 salmon Yakutian Laika,53.40163376568916,-2.94895582646609
2024-1-31,2024-2-7,12,6027566099988480 pink Silken Windhound,53.40125426223059,-2.9562450889117144
2024-2-8,2024-2-15,15,4202307084353536 fuchsia Chongqing dog,53.399652866167706,-2.9674886443228843
2024-2-24,2024-3-2,8,6497304659886080 azure Gull Terrier,53.39278690550851,-2.94028434882523
2024-3-3,2024-3-10,43,5862263426646016 magenta Keeshond,53.399913992919316,-2.9293581630312246
2024-3-3,2024-3-10,14,7311082286743552 orange Schipperke,53.41115974181581,-2.941026269054305
2024-3-19,2024-3-26,41,1259106042118144 turquoise American Staffordshire Terrier,53.38474522912883,-2.9583717800198883
2024-3-19,2024-3-26,22,8693821653123072 orange Lakeland Terrier,53.397569582613635,-2.9776620979827157
2024-4-4,2024-4-11,35,1178290534481920 salmon Small Münsterländer,53.37545890109578,-2.9409286931942233
2022-1-1,2022-1-8,14,2308323300868096 violet English Cocker Spaniel,53.3870439768375,-2.9596805243628523
2022-1-17,2022-1-24,48,601400310497280 yellow Tyrolean Hound,53.371784132465685,-2.965207342803069
2022-1-17,2022-1-24,35,7903121015570432 pink Belgian Shepherd,53.383441956002656,-2.9821730821987558
2022-1-25,2022-2-1,33,3460920162385920 silver Pastore della Lessinia e del Lagorai,53.4048446591056,-2.9600852032178864
2022-2-2,2022-2-9,37,4251854221344768 red Bolognese,53.3889905827476,-2.9553803108668717
2022-2-10,2022-2-17,10,6967215800713216 lime Havanese,53.39557047924141,-2.9540349648892743
2022-2-18,2022-2-25,27,1846046097408000 black Carea Castellano Manchego,53.374389251744816,-2.9659939548231478
2022-3-6,2022-3-13,44,1923667411861504 black Boerboel,53.406918517354256,-2.963336302678158
2022-3-14,2022-3-21,11,6312798856413184 orchid Hygen Hound,53.39119419015211,-2.917168970021862
2022-3-22,2022-3-29,46,2442893369278464 black Havanese,53.37540782644039,-2.9504504048214812
2022-3-30,2022-4-6,42,4322096735846400 cyan Croatian Sheepdog,53.3803515624576,-2.944711409311708
2022-3-30,2022-4-6,13,2601697538998272 lime Thai Ridgeback,53.3974693158738,-2.953490555286521
2022-4-7,2022-4-14,23,1059555849011200 teal Grand Basset Griffon Vendéen,53.375047031553,-2.9535006148897764
2022-4-15,2022-4-22,19,7379029111865344 cyan Huntaway,53.39330172103174,-2.9450056071721065
2022-4-23,2022-4-30,13,6135684725211136 mint green Olde English Bulldogge,53.392551074748646,-2.948429367511835
2022-5-9,2022-5-16,11,7956891191738368 maroon Soft-Coated Wheaten Terrier,53.390418652858685,-2.9610333677194376
2022-5-9,2022-5-16,2,4514133275836416 pink Xoloitzcuintli,53.40160522216858,-2.946376458375312
2022-5-17,2022-5-24,33,1095199109414912 azure Chihuahua,53.41989817859347,-2.9541900754533117
2022-6-2,2022-6-9,5,8185073813684224 ivory English Springer Spaniel,53.3973874287972,-2.9801094065365987
2022-6-2,2022-6-9,37,7474811330625536 magenta Indian pariah dog,53.39107958650143,-2.9617324626968866
2022-6-10,2022-6-17,24,4626244075257856 white Basque Shepherd Dog,53.39465255737106,-2.940378578184209
2022-6-18,2022-6-25,38,2433844846264320 lavender Pshdar Dog,53.367570779541644,-2.9585445649843223
2022-6-26,2022-7-3,2,4183950488502272 grey French Bulldog,53.39125991693455,-2.9586175918879007
2022-7-4,2022-7-11,8,7998953427566592 yellow Chesapeake Bay Retriever,53.39533892095085,-2.945334460811523
2022-7-20,2022-7-27,43,7497675263967232 salmon Kai Ken,53.40243778739399,-2.9608037212973386
2022-7-28,2022-8-4,11,8140863781732352 salmon Romanian Raven Shepherd Dog,53.3960904637558,-2.9788885084558387
2022-7-28,2022-8-4,27,5641705181151232 turquoise Giant Schnauzer,53.39410604427439,-2.9468935318168406
2022-8-13,2022-8-20,14,5101594064453632 black Siberian Husky,53.384029375636366,-2.9443898710021585
2022-8-13,2022-8-20,20,3506285408419840 lime Bruno Jura Hound,53.42393504509947,-2.940269178315816
2022-8-21,2022-8-28,12,6004150624059392 violet Vizsla,53.4136407006287,-2.968794504624725
2022-9-6,2022-9-13,40,1964806808535040 purple Russian Spaniel,53.4198180850517,-2.9346221991570474
2022-9-6,2022-9-13,23,5945769121021952 salmon Armenian Gampr dog,53.39450168971383,-2.9481854758128065
2022-9-22,2022-9-29,23,3110593712095232 black Hovawart,53.39391921950233,-2.9491919398013806
2022-9-30,2022-10-7,13,4590658224390144 green Treeing Walker Coonhound,53.41345688651449,-2.9687736958318283
2022-10-8,2022-10-15,31,7299986400215040 grey Miniature Schnauzer,53.36491974860165,-2.9535324448000893
2022-10-8,2022-10-15,43,1368608206749696 gold Bull Terrier,53.41296420720079,-2.924569583445873
2022-10-16,2022-10-23,15,8512480452018176 purple Neapolitan Mastiff,53.39401767466262,-2.948585776901723
2022-11-1,2022-11-8,5,621945984909312 grey Telomian,53.38705976631934,-2.9422845647861777
2022-11-9,2022-11-16,40,2754888408760320 pink Doberman Pinscher,53.39358690545838,-2.94515875534978
2022-11-17,2022-11-24,47,4833512133754880 red Alopekis,53.38652089125656,-2.9518902350072267
2022-11-17,2022-11-24,40,1352636857057280 indigo Eurasier,53.378907975367454,-2.978562426437634
2022-12-3,2022-12-10,22,4068562568216576 white French Bulldog,53.39134368712801,-2.9835932843091086
2022-12-3,2022-12-10,22,3590317133529088 lime Bhotia,53.39045129326267,-2.962791598273384
2022-12-19,2022-12-26,23,4619677904928768 olive German Shorthaired Pointer,53.3965230405094,-2.9149964092500795
2022-12-27,2023-1-3,41,1821330039111680 teal Pug,53.379513639904516,-2.9361472077451936
2022-12-27,2023-1-3,27,8673353212624896 lime Neapolitan Mastiff,53.361269379991214,-2.9348220110456396
2023-1-12,2023-1-19,39,4692004388732928 orange Saint Hubert Jura Hound,53.39178868619306,-2.915382513285522
2023-1-12,2023-1-19,9,7688850381996032 grey Danish-Swedish Farmdog,53.3950407996468,-2.941527495123978
2023-1-20,2023-1-27,47,5493268930363392 cyan Staffordshire Bull Terrier,53.39188391717143,-2.91893905175516
2023-2-5,2023-2-12,23,2864162698952704 yellow German Longhaired Pointer,53.38222651359918,-2.942068368946366
2023-2-5,2023-2-12,39,5824969879584768 plum Xoloitzcuintli,53.38501441146923,-2.9401334605948932
2023-2-13,2023-2-20,40,1917554190712832 pink Alaskan Malamute,53.37992732959353,-2.9584538329746692
2023-2-21,2023-2-28,11,3851789390577664 lime Miniature Pinscher,53.40011077197929,-2.9509723364977845
2023-3-9,2023-3-16,37,3832467538575360 red White Swiss Shepherd Dog,53.36748699601076,-2.965323699380747
2023-3-9,2023-3-16,44,1900936012234752 lime Kerry Beagle,53.394492014302436,-2.9568544254108247
2023-3-17,2023-3-24,27,4208495777808384 orange Drever,53.39289531536585,-2.954923598942514
2023-4-2,2023-4-9,45,8553296293789696 violet Pyrenean Mountain Dog,53.39705868294023,-2.9554533230532343
2023-4-10,2023-4-17,14,7759915833622528 yellow Drentse Patrijshond,53.39075738017367,-2.9504788391193415
2023-4-18,2023-4-25,5,254835632898048 tan Hygen Hound,53.389142729761964,-2.94042151178337
2023-4-18,2023-4-25,7,1925928376598528 tan Lupo Italiano,53.36152652362904,-2.9392776730190917
2023-5-4,2023-5-11,32,5456665608454144 tan American Bulldog,53.414571656184435,-2.9432049810358194
2023-5-4,2023-5-11,24,8439740231581696 cyan Cantabrian Water Dog,53.38487041982822,-2.97463967290696
2023-5-12,2023-5-19,6,2972273283694592 grey Cantabrian Water Dog,53.39302792160531,-2.9515899796656413
2023-5-20,2023-5-27,14,1705051991048192 grey Maremmano-Abruzzese Sheepdog,53.39825200154677,-2.9467554853224556
2023-6-5,2023-6-12,8,8048099618455552 red Cardigan Welsh Corgi,53.38945532418732,-2.943479414954595
2023-6-13,2023-6-20,44,3331138124775424 violet Drentse Patrijshond,53.4203366399702,-2.9496554780633915
2023-6-21,2023-6-28,17,7078540358975488 gold Dalmatian,53.38925171027524,-2.9667745527799525
