start_date,end_date,Count_sum,postcode,latitude,longitude
2022-1-1,2022-1-8,45,712 white Istrian Coarse-haired Hound,53.40410726510657,-2.953914204784496
2022-1-9,2022-1-16,45,040 purple Alapaha Blue Blood Bulldog,53.409494662992536,-2.9740633985888962
2022-1-17,2022-1-24,8,448 pink Olde English Bulldogge,53.42201577557775,-2.9392051569044497
2022-2-2,2022-2-9,5,720 tan Tamaskan Dog,53.408776021348146,-2.9583890144647285
2022-2-2,2022-2-9,48,632 azure Stabyhoun,53.38495215917076,-2.9413941160686363
2022-2-18,2022-2-25,33,592 red Shiba Inu,53.36029630005919,-2.947263783492076
2022-2-26,2022-3-5,15,216 pink Paisley Terrier,53.391784475109425,-2.944188491896284
2022-3-6,2022-3-13,24,856 grey Galician Shepherd Dog,53.420496459777,-2.939195649938597
2022-3-14,2022-3-21,36,584 blue English Foxhound,53.40293301916379,-2.944926526716472
2022-3-14,2022-3-21,34,208 cyan Jack Russell Terrier,53.3892460456903,-2.955112056855114
2022-3-22,2022-3-29,46,264 tan Kooikerhondje,53.39968371026378,-2.929250546289495
2022-4-7,2022-4-14,30,520 olive Tamaskan Dog,53.39614564539487,-2.9510690713964323
2022-4-7,2022-4-14,15,272 orange Taigan,53.391338012893044,-2.9729311525577486
2022-4-15,2022-4-22,20,168 pink Akbash,53.378457638481635,-2.94003775022793
2022-5-1,2022-5-8,17,256 teal Pharaoh Hound,53.376526818860384,-2.956737789497197
2022-5-1,2022-5-8,21,928 salmon Alopekis,53.404407121460295,-2.9564238232165962
2022-5-17,2022-5-24,7,552 violet Irish Terrier,53.37703070566396,-2.9296129745822554
2022-5-17,2022-5-24,46,968 gold Akbash,53.39780426149573,-2.9479380583545662
2022-5-25,2022-6-1,18,712 sky blue Ibizan Hound,53.394502458399344,-2.9634632763861646
2022-6-2,2022-6-9,12,344 turquoise Hygen Hound,53.3771948094653,-2.949477732692685
2022-6-10,2022-6-17,48,096 indigo Boerboel,53.39717406715784,-2.9324692063833027
2022-6-18,2022-6-25,17,832 olive Clumber Spaniel,53.36753569546867,-2.9527693717299144
2022-6-26,2022-7-3,2,424 gold Otterhound,53.393908356569455,-2.9408461421961647
2022-7-4,2022-7-11,21,320 indigo Schweizerischer Niederlaufhund,53.393853213073534,-2.956481414811037
2022-7-12,2022-7-19,35,584 mint green Keeshond,53.38867335899912,-2.9368381386731244
2022-7-28,2022-8-4,30,368 fuchsia Karst Shepherd,53.385302949100534,-2.9270953323472213
2022-8-5,2022-8-12,5,504 cyan Cirneco dell'Etna,53.40204575370725,-2.9147851323515397
2022-8-13,2022-8-20,19,216 ivory Dogo Argentino,53.39076063344679,-2.913440442295837
2022-8-13,2022-8-20,43,344 orchid Dutch Shepherd,53.40155241837308,-2.921429343489649
2022-8-21,2022-8-28,28,264 tan Austrian Black and Tan Hound,53.38806352560535,-2.948972672256218
2022-9-6,2022-9-13,48,616 gold Cão da Serra de Aires,53.383654784773036,-2.95525230134956
2022-9-6,2022-9-13,3,160 black Tibetan Mastiff,53.41170035178279,-2.9592677397808984
2022-9-22,2022-9-29,41,968 white Grand Anglo-Français Blanc et Noir,53.36309067661551,-2.940756129063402
2022-9-22,2022-9-29,19,768 ivory Braque du Bourbonnais,53.38841317117308,-2.9408012945571045
2022-10-8,2022-10-15,13,888 grey Posavac Hound,53.37251354880506,-2.9510158992944753
2022-10-16,2022-10-23,11,008 teal Ratonero Mallorquin,53.41390274267113,-2.95116952998535
2022-10-24,2022-10-31,41,568 white Thai Ridgeback,53.389513578192386,-2.94739184375851
2022-11-1,2022-11-8,14,664 violet Griffon Fauve de Bretagne,53.3775569894674,-2.9579538846585365
2022-11-1,2022-11-8,31,256 olive Treeing Cur,53.38962165757314,-2.946963509934676
2022-11-17,2022-11-24,38,696 green Sardinian Shepherd Dog,53.380124140861234,-2.92608394438048
2022-11-25,2022-12-2,10,072 pink Bolognese,53.38586931794518,-2.943942821868859
2022-11-25,2022-12-2,20,336 pink Kuvasz,53.404302071780016,-2.9570002178161303
2022-12-3,2022-12-10,16,792 purple Hamiltonstövare,53.402842508868446,-2.9279834500565585
2022-12-19,2022-12-26,19,344 purple Toy Fox Terrier,53.40777449255914,-2.93656272282567
2022-12-19,2022-12-26,7,784 yellow Irish Red and White Setter,53.40201717236675,-2.945062246873931
2023-1-4,2023-1-11,23,280 orchid Schillerstövare,53.36199550093224,-2.947149656343754
2023-1-12,2023-1-19,8,320 pink Ibizan Hound,53.42659602427597,-2.9591392041094196
2023-1-12,2023-1-19,38,672 azure American Foxhound,53.414245244813436,-2.9483046380505584
2023-1-20,2023-1-27,13,536 cyan Lithuanian Hound,53.40083989284782,-2.9438243119544723
2023-1-28,2023-2-4,22,080 pink Chien Français Blanc et Orange,53.41774922805049,-2.955802599440858
2023-2-13,2023-2-20,15,224 violet Carea Castellano Manchego,53.39533699557114,-2.971579637689615
2023-2-21,2023-2-28,39,224 violet Italian Greyhound,53.39969858823294,-2.953547326970238
2023-3-1,2023-3-8,8,344 azure Telomian,53.41591890024232,-2.9494086763993437
2023-3-9,2023-3-16,34,736 orange Old English Terrier,53.41055409041857,-2.973952228394296
2023-3-9,2023-3-16,3,680 yellow Petit Bleu de Gascogne,53.40312357750195,-2.932101109099108
2023-3-17,2023-3-24,43,232 pink Border Collie,53.37908616596303,-2.952379145182249
2023-3-25,2023-4-1,39,576 tan Sabueso Español,53.374785679149134,-2.9667311886234984
2023-4-10,2023-4-17,24,760 magenta Briard,53.37581454119722,-2.938992563602824
2023-4-10,2023-4-17,21,400 violet Poitevin,53.393814820669675,-2.9485783181009992
2023-4-18,2023-4-25,6,376 silver Pomeranian,53.385723849840964,-2.930554726708806
2023-5-4,2023-5-11,47,456 turquoise Bully Kutta,53.39543321274833,-2.944533044585114
2023-5-4,2023-5-11,45,304 grey Small Greek domestic dog,53.39264806190732,-2.946269137495392
2023-5-20,2023-5-27,2,432 teal American Pit Bull Terrier,53.41253916237727,-2.9509596663436923
2023-5-20,2023-5-27,18,224 teal Perro de Presa Mallorquin,53.37685892411905,-2.949725772875013
2023-6-5,2023-6-12,39,592 violet Soft-Coated Wheaten Terrier,53.42800013805947,-2.9584610664502407
2023-6-13,2023-6-20,48,728 magenta Scottish Deerhound,53.39199700170345,-2.9512552774114056
2023-6-13,2023-6-20,44,552 purple Aidi,53.41205566168974,-2.9690619829182197
2023-6-29,2023-7-6,39,408 olive Dunker,53.393416428621556,-2.948273417567748
2023-6-29,2023-7-6,47,384 blue Anglo-Français de Petite Vénerie,53.41325772650382,-2.94209920768094
2023-7-15,2023-7-22,46,648 indigo Broholmer,53.39540656988334,-2.934712261532127
2023-7-15,2023-7-22,33,040 gold Old Croatian Sighthound,53.39230333659881,-2.93385785244584
2023-7-23,2023-7-30,7,568 black Australian Cattle Dog,53.38069619508845,-2.9398090812504734
2023-8-8,2023-8-15,26,288 orchid German Wirehaired Pointer,53.41719307455488,-2.9669600785122157
2023-8-16,2023-8-23,32,080 yellow Kuchi,53.40660306729698,-2.95327001937153
2023-8-24,2023-8-31,33,336 green Pumi,53.39247827822924,-2.9604795888064928
2023-9-1,2023-9-8,24,920 salmon Tibetan Mastiff,53.39067060549294,-2.9454153507018646
2023-9-9,2023-9-16,16,840 cyan Indian pariah dog,53.39359318024682,-2.9582855138551167
2023-9-17,2023-9-24,31,112 olive Serrano Bulldog,53.37483216969384,-2.9672194182367093
2023-9-17,2023-9-24,13,896 cyan Akita,53.396374739117284,-2.9403838564254556
2023-9-25,2023-10-2,40,144 grey Segugio Italiano,53.400963049423886,-2.9187801634666357
2023-10-3,2023-10-10,4,984 yellow English Springer Spaniel,53.39380558167075,-2.9661258361795717
2023-10-11,2023-10-18,16,688 indigo Westphalian Dachsbracke,53.36291944566833,-2.957754689595049
2023-10-27,2023-11-3,2,120 plum Border Collie,53.365412375119185,-2.9513802417230863
2023-11-4,2023-11-11,1,584 olive Newfoundland,53.39175382723812,-2.9546198459831885
2023-11-12,2023-11-19,43,752 indigo German Pinscher,53.38341969648316,-2.9400568380460754
2023-11-20,2023-11-27,17,688 pink Dogo Sardesco,53.38275571004636,-2.947985277470025
2023-11-20,2023-11-27,4,424 turquoise Galician Shepherd Dog,53.423703737156465,-2.9488993850953875
2023-12-6,2023-12-13,22,328 ivory East European Shepherd,53.409901251955944,-2.950692267991826
2023-12-14,2023-12-21,34,312 grey German Shepherd Dog,53.39656637802918,-2.947055026447515
2023-12-14,2023-12-21,33,912 violet English Foxhound,53.40337383973201,-2.9572067217034146
2023-12-30,2024-1-6,18,904 violet Gull Terrier,53.393761699026705,-2.948817275159172
2024-1-7,2024-1-14,20,568 tan White Shepherd,53.41266784566599,-2.954505454100854
2024-1-15,2024-1-22,48,152 mint green Trigg Hound,53.36716459478453,-2.943213949263054
2024-1-15,2024-1-22,34,208 turquoise Polish Tatra Sheepdog,53.39442586284711,-2.948948282566789
2024-1-23,2024-1-30,37,320 maroon Manchester Terrier,53.4265979555229,-2.9532521915991765
2024-1-31,2024-2-7,18,784 green Saint Bernard,53.40939914521245,-2.9584966972048505
2024-2-16,2024-2-23,7,104 cyan German Shepherd Dog,53.39492910510786,-2.9550021037504166
2024-2-16,2024-2-23,19,336 red Tornjak,53.38413998662612,-2.95511100402166
2024-3-3,2024-3-10,29,320 tan Pražský Krysařík,53.395099507374525,-2.9520879316016817
2024-3-11,2024-3-18,47,320 lavender Pyrenean Sheepdog,53.40757197075259,-2.947388422529002
2024-3-19,2024-3-26,9,192 gold Cursinu,53.42176125125863,-2.9289425542280014
2024-3-27,2024-4-3,7,848 magenta Hovawart,53.37767917784248,-2.9541569057170136
2024-3-27,2024-4-3,33,120 silver Boston Terrier,53.39754256128702,-2.9729563133946613
2022-1-9,2022-1-16,2,824 ivory Puli,53.412271348905726,-2.9621453092081538
2022-1-17,2022-1-24,43,152 ivory French Bulldog,53.36964441863995,-2.9739290708107546
2022-1-17,2022-1-24,26,256 violet Hovawart,53.385724762819876,-2.932962848801367
2022-1-25,2022-2-1,15,912 purple Rhodesian Ridgeback,53.40504454532575,-2.958126014871823
2022-2-2,2022-2-9,6,792 indigo Austrian Black and Tan Hound,53.39657398689463,-2.9659478353059967
2022-2-10,2022-2-17,22,424 teal White Swiss Shepherd Dog,53.38567886501882,-2.9232488909428866
2022-2-18,2022-2-25,13,712 black Spanish Water Dog,53.410931422722804,-2.94236975166541
2022-3-6,2022-3-13,7,944 indigo Kangal Shepherd Dog,53.382913074649515,-2.9254616618611635
2022-3-14,2022-3-21,11,624 gold Bohemian Shepherd,53.395366887901346,-2.9489105159527753
2022-3-22,2022-3-29,5,496 violet Hierran Wolfdog,53.39199697708303,-2.9495266665592226
2022-3-22,2022-3-29,48,488 blue French Bulldog,53.3981962924829,-2.950074166461718
2022-3-30,2022-4-6,19,864 cyan Australian Terrier,53.414907398192916,-2.9236820551243454
2022-4-15,2022-4-22,32,752 blue Maltese,53.39528292237796,-2.9418534465469293
2022-4-23,2022-4-30,28,640 tan Kars,53.38032958107345,-2.974884822037666
2022-4-23,2022-4-30,46,864 gold Bull Terrier,53.39449683890476,-2.9510078011398946
2022-5-9,2022-5-16,27,520 violet Saint Hubert Jura Hound,53.39743726859326,-2.9287822485141533
2022-5-9,2022-5-16,44,552 turquoise Transylvanian Hound,53.360632991310425,-2.950516571069784
2022-5-17,2022-5-24,35,544 salmon Greek Shepherd,53.39589331487941,-2.9341404144679473
2022-6-2,2022-6-9,31,848 red Perro de Pastor Mallorquin,53.38753382021999,-2.9233583611212453
2022-6-10,2022-6-17,8,216 gold Rhodesian Ridgeback,53.404790076607064,-2.97538454083724
2022-6-10,2022-6-17,26,296 maroon Tosa,53.40236332213147,-2.975714533075916
2022-6-26,2022-7-3,48,208 pink Blue Lacy,53.395849834790035,-2.9399784287544435
2022-6-26,2022-7-3,5,640 pink Old Danish Pointer,53.39582536110512,-2.9735023742355224
2022-7-12,2022-7-19,14,256 white Icelandic Sheepdog,53.42738502565771,-2.958555190815332
2022-7-20,2022-7-27,29,712 azure Molossus of Epirus,53.383932399191195,-2.93645991288372
2022-7-20,2022-7-27,20,728 lime Australian Terrier,53.40405370616229,-2.9473434868995128
2022-8-5,2022-8-12,28,072 cyan Sinhala Hound,53.391531181538845,-2.9378160204284995
2022-8-5,2022-8-12,43,400 pink Alopekis,53.368135641449214,-2.954950076010846
2022-8-21,2022-8-28,7,992 green Afghan Hound,53.37667839847151,-2.9299067182959107
2022-8-21,2022-8-28,28,712 magenta German Spitz,53.39315130810965,-2.9454278271829253
2022-8-29,2022-9-5,15,856 plum Dutch Shepherd,53.38124457366999,-2.9369396410121453
2022-9-6,2022-9-13,45,136 yellow Boxer,53.423055829276,-2.9361815038167833
2022-9-22,2022-9-29,35,368 pink Yorkshire Terrier,53.39396516094712,-2.9480762075849043
2022-9-22,2022-9-29,37,656 salmon Appenzeller Sennenhund,53.40322151689584,-2.9423731511773212
2022-9-30,2022-10-7,33,408 magenta Paisley Terrier,53.39291370006755,-2.9354114973721153
2022-10-8,2022-10-15,26,520 yellow Icelandic Sheepdog,53.380191375883406,-2.9430999516064276
2022-10-24,2022-10-31,18,080 orchid King Shepherd,53.40296319702786,-2.969205246442584
2022-10-24,2022-10-31,17,584 grey Central Asian Shepherd Dog,53.393808088149804,-2.9474496672182795
2022-11-1,2022-11-8,23,680 olive Soft-Coated Wheaten Terrier,53.41764969287647,-2.9331013643726465
2022-11-9,2022-11-16,17,248 violet Volpino Italiano,53.378107661246375,-2.9683013428855247
2022-11-17,2022-11-24,35,008 lavender Shih Tzu,53.38332380592638,-2.9283571997082163
2022-11-25,2022-12-2,32,552 lime Barbado da Terceira,53.40254390848156,-2.9544518699032096
2022-12-11,2022-12-18,41,552 fuchsia Bruno Jura Hound,53.41302903925964,-2.9569709306533696
2022-12-11,2022-12-18,7,384 plum German Spaniel,53.37145374452864,-2.9352983129659833
2022-12-27,2023-1-3,45,192 grey Hygen Hound,53.40631048964739,-2.9506840859605745
2023-1-4,2023-1-11,26,840 lime Mucuchies,53.41834525493872,-2.9427130668973405
2023-1-4,2023-1-11,24,208 salmon Kromfohrländer,53.393577308308046,-2.949431319407495
2023-1-12,2023-1-19,18,184 lavender Romanian Mioritic Shepherd Dog,53.4263022843986,-2.943590456000038
2023-1-20,2023-1-27,20,384 gold Braque de l'Ariège,53.38894026926658,-2.971558753510976
2023-2-5,2023-2-12,1,592 magenta Kromfohrländer,53.39753349856233,-2.943567098432709
2023-2-5,2023-2-12,42,448 lime Standard Schnauzer,53.37474235463071,-2.948285810420657
2023-2-13,2023-2-20,27,384 plum Komondor,53.36485967471084,-2.9591905479053366
2023-2-21,2023-2-28,9,664 indigo Drever,53.41245722722095,-2.9458224125668266
2023-3-1,2023-3-8,35,640 silver Pembroke Welsh Corgi,53.38366279331317,-2.9504026974160524
2023-3-9,2023-3-16,46,320 sky blue Pudelpointer,53.39468192755412,-2.972328047327437
2023-3-17,2023-3-24,36,984 mint green Cardigan Welsh Corgi,53.427165777323296,-2.936782569280922
2023-3-25,2023-4-1,3,336 white Golden Retriever,53.39430075273306,-2.9498436634123664
2023-4-10,2023-4-17,17,568 violet Greek Shepherd,53.39488694342965,-2.9605153095022843
2023-4-18,2023-4-25,11,512 orchid Field Spaniel,53.40573623075806,-2.9504746786357146
2023-4-18,2023-4-25,8,200 lime German Spitz,53.360416885111235,-2.945394845122337
2023-5-4,2023-5-11,23,752 maroon Pharaoh Hound,53.3986560398106,-2.9402426052686224
2023-5-4,2023-5-11,45,672 lavender Huntaway,53.384387831914786,-2.9449550828534257
2023-5-12,2023-5-19,34,408 purple Bracco Italiano,53.3939025,-2.9486548999999513
2023-5-20,2023-5-27,25,984 red Pungsan Dog,53.36503784992623,-2.9429802051977276
2023-5-28,2023-6-4,8,032 magenta Irish Water Spaniel,53.391090174230094,-2.948268583854656
2023-6-13,2023-6-20,17,024 violet Kintamani,53.38272125209126,-2.9705864049260526
2023-6-21,2023-6-28,4,752 magenta Small Greek domestic dog,53.41073845965535,-2.9491866497999126
2023-6-29,2023-7-6,31,440 white Garafian Shepherd,53.394463442679495,-2.924930780651266
2023-7-7,2023-7-14,25,400 green Petit Bleu de Gascogne,53.38881447615843,-2.949698265035636
2023-7-7,2023-7-14,32,920 azure McNab dog,53.39166940823832,-2.9503040679072683
2023-7-15,2023-7-22,7,408 plum Toy Fox Terrier,53.40065327630901,-2.983313122685445
2023-7-23,2023-7-30,10,576 lime Can de Chira,53.37211035655965,-2.9556261286059
2023-7-31,2023-8-7,46,256 olive Norwegian Lundehund,53.394873584124255,-2.9480629432491696
2023-8-16,2023-8-23,22,160 purple Hällefors Elkhound,53.38638892718208,-2.9170561238029222
2023-8-16,2023-8-23,40,864 red King Charles Spaniel,53.408486566338816,-2.9754021568749067
2023-8-24,2023-8-31,39,336 fuchsia Dogo Guatemalteco,53.40601686397838,-2.9544370921246355
2023-9-9,2023-9-16,37,728 green Vizsla,53.40357392197315,-2.9339330224420337
2023-9-17,2023-9-24,44,672 tan Eurasier,53.38270341137503,-2.9329388514231596
2023-9-17,2023-9-24,33,864 white Kintamani,53.41220002872101,-2.9632546338592647
2023-9-25,2023-10-2,10,424 grey Tamaskan Dog,53.37052562870561,-2.9302566463952644
2023-10-11,2023-10-18,14,464 olive Finnish Lapphund,53.37709297385808,-2.9603698729408734
2023-10-11,2023-10-18,34,528 lime Skye Terrier,53.36478584024669,-2.9664396006978677
2023-10-27,2023-11-3,17,304 orange Braque du Bourbonnais,53.381812253832074,-2.9659122994257814
2023-11-4,2023-11-11,13,960 indigo Silken Windhound,53.40024653586129,-2.9472749934338935
2023-11-4,2023-11-11,47,984 turquoise Istrian Shorthaired Hound,53.369002628820844,-2.9569559201868287
2023-11-20,2023-11-27,43,832 pink Italian Greyhound,53.39455811565371,-2.9630754642582815
2023-11-28,2023-12-5,43,728 grey Banjara Hound,53.39961784941196,-2.93076714123697
2023-11-28,2023-12-5,7,504 teal Ratonero Bodeguero Andaluz,53.37353740627728,-2.9324827131977145
2023-12-6,2023-12-13,35,136 mint green Shih Tzu,53.40235181224848,-2.9181845839081006
2023-12-14,2023-12-21,46,824 orchid Irish Red and White Setter,53.37039485167196,-2.972195049751349
2023-12-22,2023-12-29,14,496 lime Manchester Terrier,53.39106827897414,-2.966710967846325
2024-1-7,2024-1-14,47,992 orchid Bolognese,53.395334621715655,-2.9556560163166523
2024-1-7,2024-1-14,10,328 ivory Mackenzie River Husky,53.39068983501934,-2.9487732726995546
2024-1-15,2024-1-22,43,768 grey Eurasier,53.36257119856103,-2.957249536520976
2024-1-23,2024-1-30,5,288 black Finnish Hound,53.403019617935044,-2.9307270414066124
2024-1-31,2024-2-7,29,984 pink Griffon Bleu de Gascogne,53.40196144098297,-2.9154833553938033
2024-2-16,2024-2-23,43,672 plum Welsh Sheepdog,53.397732149102424,-2.935920095483084
2024-2-16,2024-2-23,31,048 mint green Dutch Shepherd,53.38664670324972,-2.9436077227372834
2024-2-24,2024-3-2,44,048 lavender Alpine Dachsbracke,53.37562342789276,-2.9673406315517923
2024-3-3,2024-3-10,23,544 turquoise Kangal Shepherd Dog,53.40291402441171,-2.946268479747573
2024-3-19,2024-3-26,23,112 orchid Serbian Hound,53.36417204074341,-2.929839284937202
2024-3-19,2024-3-26,37,440 violet Kerry Blue Terrier,53.38774818057421,-2.937537531316025
2024-4-4,2024-4-11,33,544 lime Wirehaired Pointing Griffon,53.39429818861533,-2.949711573605555
2022-1-9,2022-1-16,41,664 turquoise Eurasier,53.364064597572344,-2.952992137187721
2022-1-9,2022-1-16,28,944 black Tenterfield Terrier,53.409515377708,-2.9777574319818996
2022-1-25,2022-2-1,42,928 cyan Löwchen,53.40417860181425,-2.979286820743482
2022-2-2,2022-2-9,41,816 yellow Norwegian Lundehund,53.39426564823687,-2.9485570118487203
2022-2-2,2022-2-9,43,040 maroon Pudelpointer,53.39929783421498,-2.932461850749064
2022-2-18,2022-2-25,11,064 tan Olde English Bulldogge,53.406965476570846,-2.954944164786184
2022-2-18,2022-2-25,4,920 salmon Patterdale Terrier,53.38561808877885,-2.9396668904039416
2022-3-6,2022-3-13,34,904 teal Ratonero Bodeguero Andaluz,53.41167548648202,-2.9256308464903213
2022-3-14,2022-3-21,5,504 fuchsia Gull Terrier,53.39373498918969,-2.948864930833224
2022-3-22,2022-3-29,16,872 salmon Cão de Castro Laboreiro,53.366307995284906,-2.95657903441338
2022-3-22,2022-3-29,13,456 white Slovenský Cuvac,53.38410403349534,-2.9545681398494708
2022-4-7,2022-4-14,44,216 lime Rhodesian Ridgeback,53.41186876090106,-2.9518108106161662
2022-4-7,2022-4-14,33,040 red Harrier,53.402319761824245,-2.972112181899206
2022-4-23,2022-4-30,6,096 grey Löwchen,53.382997926305116,-2.976236491339364
2022-5-1,2022-5-8,13,096 black Shar Pei,53.39401869695214,-2.917079783802592
2022-5-1,2022-5-8,2,984 salmon American Bulldog,53.39846087994687,-2.9733748131278617
2022-5-17,2022-5-24,37,680 plum Sapsali,53.36291496219293,-2.9626736996506224
2022-5-17,2022-5-24,6,704 cyan Taiwan Dog,53.40644498243991,-2.92275020171337
2022-5-25,2022-6-1,39,704 purple Golden Retriever,53.39703708507083,-2.9423928137398434
2022-6-2,2022-6-9,31,368 white Pharaoh Hound,53.40072277190606,-2.9428379952930754
2022-6-18,2022-6-25,8,640 fuchsia Japanese Spitz,53.39415476858166,-2.949514132688364
2022-6-26,2022-7-3,29,960 magenta Perro de Pastor Mallorquin,53.395485644305026,-2.98055812870939
2022-7-4,2022-7-11,17,984 yellow Carea Castellano Manchego,53.39420773998176,-2.9282935178165417
2022-7-12,2022-7-19,5,896 tan Basset Artésien Normand,53.399818645176886,-2.961201295945557
2022-7-20,2022-7-27,2,776 violet Pungsan Dog,53.38252950262131,-2.9475496122000777
2022-7-20,2022-7-27,20,944 yellow American English Coonhound,53.39873468173914,-2.972711077305007
2022-7-28,2022-8-4,14,864 plum Vikhan,53.38776960755136,-2.9580725469667186
2022-8-5,2022-8-12,42,328 teal Gull Terrier,53.37075708234303,-2.938599828850556
2022-8-21,2022-8-28,35,560 pink Bully Kutta,53.362393449713345,-2.944787739154094
2022-8-29,2022-9-5,1,416 tan Perro Majorero,53.38023528195234,-2.963361956020435
2022-8-29,2022-9-5,3,152 mint green Villano de Las Encartaciones,53.39403991225708,-2.9490904425681492
2022-9-6,2022-9-13,17,728 white Polish Lowland Sheepdog,53.408531189767174,-2.9498477773977356
2022-9-14,2022-9-21,3,024 lime Great Dane,53.40708059406682,-2.931024269651175
2022-9-30,2022-10-7,7,864 salmon Norfolk Terrier,53.39498969230051,-2.950488042101938
2022-10-8,2022-10-15,41,104 red Lapponian Herder,53.40160828513539,-2.942165377129413
2022-10-16,2022-10-23,31,808 magenta Irish Setter,53.39389084580812,-2.9478132106792145
2022-10-16,2022-10-23,48,944 silver Kuvasz,53.40619824273203,-2.949460111893927
2022-11-1,2022-11-8,26,888 cyan Hygen Hound,53.39416566532198,-2.949369134831045
2022-11-1,2022-11-8,5,488 mint green Tibetan Mastiff,53.420943541196834,-2.964940418770766
2022-11-17,2022-11-24,21,448 violet Villano de Las Encartaciones,53.42299227691529,-2.9666032064700403
2022-11-25,2022-12-2,9,360 salmon Treeing Cur,53.40707841587603,-2.938627147705006
2022-12-3,2022-12-10,46,640 green Portuguese Water Dog,53.4174317588522,-2.9666817084521426
2022-12-3,2022-12-10,22,776 black Koyun dog,53.388809376697935,-2.919982070070205
2022-12-11,2022-12-18,22,664 orange Otterhound,53.39629598026419,-2.9458825626542193
2022-12-27,2023-1-3,35,352 olive Scottish Terrier,53.425511302225175,-2.9353197296405824
2022-12-27,2023-1-3,14,872 violet Miniature Pinscher,53.403845662642475,-2.9448466633423322
2023-1-12,2023-1-19,7,456 green Curly-Coated Retriever,53.384802998364535,-2.9289867621828307
2023-1-20,2023-1-27,46,024 black English Foxhound,53.390609341530435,-2.9292310870814617
2023-1-20,2023-1-27,32,608 teal Perro Majorero,53.42133685164372,-2.9491096296155774
2023-2-5,2023-2-12,18,784 white German Roughhaired Pointer,53.40438340042667,-2.9500689138709504
2023-2-13,2023-2-20,27,888 tan Alpine Dachsbracke,53.39033181650747,-2.951031779846403
2023-2-13,2023-2-20,9,312 lavender Petit Bleu de Gascogne,53.39448597917153,-2.9550580605908863
2023-2-21,2023-2-28,11,824 gold Sussex Spaniel,53.41430396472686,-2.945235411500107
2023-3-1,2023-3-8,13,512 orchid Indian Spitz,53.40092900273602,-2.922474639261509
2023-3-9,2023-3-16,30,592 white Welsh Terrier,53.39562931846429,-2.941646781540385
2023-3-25,2023-4-1,6,624 tan Bhotia,53.37917633873656,-2.971370034172537
2023-4-2,2023-4-9,45,584 silver Armant,53.38630619707089,-2.957070625223082
2023-4-10,2023-4-17,47,408 mint green Schillerstövare,53.39808850419834,-2.949670122117368
2023-4-18,2023-4-25,27,360 orange Ratonero Valenciano,53.418166588148,-2.950787200191371
2023-4-18,2023-4-25,38,776 olive Lancashire Heeler,53.3803006179581,-2.9539512191124686
2023-4-26,2023-5-3,29,664 tan Kintamani,53.364299597254366,-2.945137017631282
2023-5-4,2023-5-11,5,840 green West Siberian Laika,53.362446124796605,-2.935373114555773
2023-5-20,2023-5-27,12,472 purple Irish Terrier,53.38534686557501,-2.9708568969526823
2023-5-28,2023-6-4,43,800 ivory Jagdterrier,53.38919487868086,-2.9472070087479096
2023-6-5,2023-6-12,38,376 black Hovawart,53.39000162403738,-2.9780020090582866
2023-6-13,2023-6-20,12,056 teal Gascon Saintongeois,53.392332119157565,-2.9500825588745556
2023-6-21,2023-6-28,11,608 lime Chinese Chongqing Dog,53.42061489505715,-2.9307993812171844
2023-6-29,2023-7-6,8,696 salmon Ratonero Mallorquin,53.42690672368139,-2.9464205315339314
2023-6-29,2023-7-6,36,000 gold Norwegian Elkhound,53.39478773137878,-2.956863817272506
2023-7-7,2023-7-14,4,216 white Doberman Pinscher,53.400868923123504,-2.9730398739055772
2023-7-15,2023-7-22,34,368 fuchsia Lupo Italiano,53.38885312915026,-2.9240945797654376
2023-7-23,2023-7-30,36,376 indigo Eurasier,53.38862091416868,-2.9397412124812945
2023-8-8,2023-8-15,35,016 magenta Gull Dong,53.39483468967236,-2.951364639060216
2023-8-8,2023-8-15,45,136 indigo Grand Basset Griffon Vendéen,53.40772699396505,-2.965587295693581
2023-8-16,2023-8-23,13,944 indigo English Cocker Spaniel,53.42080078149371,-2.9473968570180205
2023-8-24,2023-8-31,17,592 indigo Toy Manchester Terrier,53.394577168303364,-2.9496145864183063
2023-9-9,2023-9-16,8,600 ivory Polish Greyhound,53.394923377334855,-2.9497230934973686
2023-9-17,2023-9-24,5,856 magenta German Spitz,53.384437786981245,-2.9529139645694613
2023-9-25,2023-10-2,14,976 grey King Shepherd,53.381238160802084,-2.9343319182630694
2023-9-25,2023-10-2,21,128 fuchsia Treeing Tennessee Brindle,53.363477743716544,-2.945746886665461
2023-10-3,2023-10-10,12,936 mint green West Siberian Laika,53.38944133937583,-2.9440122503986004
2023-10-11,2023-10-18,20,504 sky blue Phu Quoc Ridgeback,53.40910662267804,-2.9450463858297553
2023-10-19,2023-10-26,41,632 plum Pont-Audemer Spaniel,53.39132064657721,-2.9470580967533806
2023-11-4,2023-11-11,2,600 azure Kromfohrländer,53.37795500791118,-2.975355685935824
2023-11-12,2023-11-19,35,768 pink Pointer,53.365771138948546,-2.962615994881048
2023-11-12,2023-11-19,38,360 sky blue Galgo Español,53.37762125110489,-2.9348735941956647
2023-11-28,2023-12-5,32,360 plum Lancashire Heeler,53.3977944502595,-2.9771628741144696
2023-11-28,2023-12-5,28,624 lime Neapolitan Mastiff,53.3825805730025,-2.9308733556275683
2023-12-14,2023-12-21,7,904 violet Miniature Fox Terrier,53.40293447654099,-2.9607311757094976
2023-12-14,2023-12-21,38,136 yellow Hovawart,53.400747053255465,-2.9457343562647793
2023-12-22,2023-12-29,23,568 cyan Bhotia,53.389631334037425,-2.95164155444877
2024-1-7,2024-1-14,39,544 silver Dachshund,53.42336500447716,-2.965430386792036
2024-1-15,2024-1-22,48,704 gold Italian Greyhound,53.38312775019627,-2.924957232972588
2024-1-15,2024-1-22,2,160 salmon Barbet,53.399669086584026,-2.9454633207133156
2024-1-23,2024-1-30,27,744 yellow Japanese Spitz,53.417392345849215,-2.961109486097712
2024-1-31,2024-2-7,7,240 yellow Petit Basset Griffon Vendéen,53.415475421757414,-2.927321903626762
2024-2-8,2024-2-15,25,888 maroon Perro de Pastor Mallorquin,53.382116310785264,-2.9546571472375263
2024-2-16,2024-2-23,27,168 tan Chilean Terrier,53.41133581647119,-2.971443055075156
2024-2-24,2024-3-2,11,800 teal Staffordshire Bull Terrier,53.38931713067398,-2.944593778456351
2024-3-3,2024-3-10,5,816 red Rat Terrier,53.38710078798946,-2.9417542158308834
2024-3-19,2024-3-26,13,016 fuchsia English Setter,53.407922100776645,-2.928627070931725
2024-3-19,2024-3-26,42,384 violet Mountain Feist,53.38240889099924,-2.9230808450980703
2024-3-27,2024-4-3,20,672 purple Lakeland Terrier,53.3763659610194,-2.958882303998621
2022-1-9,2022-1-16,48,528 grey Artois Hound,53.379457683899965,-2.9520888885917884
2022-1-9,2022-1-16,31,456 violet Karakachan dog,53.381210495966066,-2.959606460753662
2022-1-17,2022-1-24,17,808 purple Portuguese Pointer,53.39490921161808,-2.94764799071811
2022-1-25,2022-2-1,1,640 gold Dogue de Bordeaux,53.39048223157643,-2.9385244310244616
2022-2-10,2022-2-17,38,680 ivory Swedish White Elkhound,53.39459423731184,-2.9292975907421805
2022-2-18,2022-2-25,37,856 lime Alaskan Husky,53.41874068609726,-2.968438942459102
2022-2-26,2022-3-5,47,024 pink Estrela Mountain Dog,53.425780917093526,-2.9575222697192203
2022-2-26,2022-3-5,31,880 teal Vizsla,53.41473833969316,-2.929746261588548
2022-3-14,2022-3-21,11,128 lime Cesky Terrier,53.36975627703605,-2.9676828306572816
2022-3-22,2022-3-29,24,168 teal Galgo Español,53.407989151774046,-2.9496539567240916
2022-3-22,2022-3-29,23,976 indigo Komondor,53.37081486525466,-2.942507874798366
2022-3-30,2022-4-6,6,888 cyan Can de Chira,53.39059306425768,-2.9416612842712766
2022-4-15,2022-4-22,8,232 magenta Rough Collie,53.36637297882342,-2.962237120175473
2022-4-23,2022-4-30,34,840 orange American Foxhound,53.39145797352309,-2.9486852600872453
2022-4-23,2022-4-30,30,392 red Phu Quoc Ridgeback,53.41012287385542,-2.9788847299469126
2022-5-1,2022-5-8,27,488 olive Patagonian Sheepdog,53.415256070693445,-2.9210529082741914
2022-5-17,2022-5-24,35,800 ivory Swedish Lapphund,53.416755067659274,-2.9618538610131964
2022-5-25,2022-6-1,21,192 plum Drentse Patrijshond,53.392696831313636,-2.9625186429024097
2022-5-25,2022-6-1,21,136 green Australian Stumpy Tail Cattle Dog,53.382582898439935,-2.957336249697505
2022-6-2,2022-6-9,20,280 plum Japanese Terrier,53.38737637495549,-2.9457877338004437
2022-6-18,2022-6-25,9,256 lime Alano Español,53.412447445955685,-2.9742215196134794
2022-6-18,2022-6-25,5,488 grey Caucasian Shepherd Dog,53.41670285244469,-2.9746351429566857
2022-6-26,2022-7-3,19,968 orange Spinone Italiano,53.394560979880524,-2.928212282442132
2022-7-12,2022-7-19,48,776 blue Denmark Feist,53.39302258489311,-2.9519513380694207
2022-7-20,2022-7-27,48,168 azure Romanian Mioritic Shepherd Dog,53.393052433757795,-2.9321906753274334
2022-7-28,2022-8-4,8,584 orange Jagdterrier,53.40191569027758,-2.981468915758569
2022-7-28,2022-8-4,4,792 turquoise Seppala Siberian Sleddog,53.38963141979127,-2.948938569685879
2022-8-13,2022-8-20,27,608 yellow Blue Lacy,53.37986337692812,-2.9441639580300034
2022-8-13,2022-8-20,15,256 tan Sinhala Hound,53.41681846089776,-2.9648257475589617
2022-8-21,2022-8-28,11,648 turquoise Yorkshire Terrier,53.39781868387168,-2.9630136410237355
2022-9-6,2022-9-13,22,744 olive Belgian Shepherd,53.39206609233414,-2.9531283328400377
2022-9-6,2022-9-13,36,872 red Canadian Eskimo Dog,53.39347608167208,-2.9486007720478256
2022-9-22,2022-9-29,48,304 pink Patagonian Sheepdog,53.38733703213003,-2.9796133454040046
2022-9-30,2022-10-7,23,760 violet Kintamani,53.412069610161666,-2.965557735294965
2022-9-30,2022-10-7,36,032 orchid New Guinea Singing Dog,53.40085054818322,-2.94561267928043
2022-10-16,2022-10-23,9,040 turquoise Hokkaido,53.38822688365098,-2.9599439817014854
2022-10-16,2022-10-23,43,400 pink Tosa,53.37821417492109,-2.9422804514146037
2022-11-1,2022-11-8,32,880 tan Vikhan,53.38572871484073,-2.9496121319447184
2022-11-9,2022-11-16,36,656 lavender Smooth Collie,53.38728587083521,-2.9726729831998
2022-11-9,2022-11-16,21,256 gold Miniature Pinscher,53.39695873125666,-2.9422746732557243
2022-11-25,2022-12-2,17,368 mint green Pyrenean Sheepdog,53.398214097348934,-2.935329453670306
2022-11-25,2022-12-2,19,328 purple German Shorthaired Pointer,53.38934213941683,-2.9294153468887316
2022-12-11,2022-12-18,24,448 white Patterdale Terrier,53.37085923893076,-2.952564402883695
2022-12-11,2022-12-18,32,440 sky blue Griffon Bleu de Gascogne,53.386894023668894,-2.9593081963538452
2022-12-19,2022-12-26,47,640 lime Kuvasz,53.419808860456364,-2.9440651791207983
2022-12-27,2023-1-3,28,256 indigo Black Mouth Cur,53.38433799554555,-2.9231863299866063
2023-1-12,2023-1-19,32,280 ivory Karst Shepherd,53.4034471414228,-2.970752745750019
2023-1-12,2023-1-19,48,080 violet Bull Terrier,53.415982336527186,-2.931330831192895
2023-1-28,2023-2-4,16,464 olive Cardigan Welsh Corgi,53.383142909321336,-2.9303611362087167
2023-2-5,2023-2-12,30,592 silver Rhodesian Ridgeback,53.378991116556854,-2.9499063407255335
2023-2-13,2023-2-20,42,752 plum Dingo,53.420116545103184,-2.9569686305089817
2023-2-13,2023-2-20,5,864 teal Saarloos Wolfdog,53.39389576521024,-2.943828159698569
2023-2-21,2023-2-28,16,344 white Magyar agár,53.38625963681961,-2.94543785489077
2023-3-9,2023-3-16,5,424 lavender Sloughi,53.39890530236021,-2.96920646452611
2023-3-17,2023-3-24,9,568 violet Dogue de Bordeaux,53.410461034724534,-2.92994560633133
2023-3-25,2023-4-1,47,984 purple Basque Shepherd Dog,53.420821830304405,-2.956496136379201
2023-4-2,2023-4-9,14,408 olive Lhasa Apso,53.38731729695244,-2.947999423297688
2023-4-10,2023-4-17,14,864 orange Old Croatian Sighthound,53.40595285883513,-2.9398590880371103
2023-4-10,2023-4-17,38,704 azure Lithuanian Hound,53.37115221483686,-2.963865052944243
2023-4-26,2023-5-3,8,120 grey Mucuchies,53.39274630824551,-2.9411767764868273
2023-4-26,2023-5-3,47,752 red Yorkshire Terrier,53.37817752772191,-2.948639316238882
2023-5-12,2023-5-19,34,504 plum Billy,53.394085247795196,-2.961324907123071
2023-5-12,2023-5-19,19,600 grey Segugio dell'Appennino,53.365083248201344,-2.935385042932353
2023-5-20,2023-5-27,31,128 silver Black Norwegian Elkhound,53.410493814275,-2.9548835134260116
2023-6-5,2023-6-12,18,184 salmon Akita,53.39625753486649,-2.9690802610210767
2023-6-5,2023-6-12,47,120 lavender Kuvasz,53.38576124771056,-2.9305182413449984
2023-6-13,2023-6-20,38,400 grey German Hound,53.407099882916526,-2.981569461266986
2023-6-29,2023-7-6,14,272 orange Black Russian Terrier,53.37190504363501,-2.9607447857405305
2023-7-7,2023-7-14,34,864 magenta Staffordshire Bull Terrier,53.40528639626115,-2.9371421362343426
2023-7-7,2023-7-14,37,848 violet Black Norwegian Elkhound,53.37746751502116,-2.9189703963037346
2023-7-23,2023-7-30,41,360 silver Black Russian Terrier,53.370252526557394,-2.9411726446725197
2023-7-23,2023-7-30,4,320 salmon Chien Français Tricolore,53.40983760007789,-2.9557526167837977
2023-8-8,2023-8-15,8,976 lavender German Pinscher,53.40887335504759,-2.9537512573525646
2023-8-16,2023-8-23,37,032 turquoise Kerry Blue Terrier,53.37133283157842,-2.9649104054622057
2023-8-16,2023-8-23,32,936 salmon Bearded Collie,53.37440863292583,-2.972611558349513
2023-8-24,2023-8-31,25,264 purple Huntaway,53.39605602748505,-2.9500411561984947
2023-9-1,2023-9-8,44,056 purple Portuguese Podengo,53.38904881796988,-2.9677209262968063
2023-9-9,2023-9-16,9,264 pink Swedish Vallhund,53.39338472187551,-2.9482271314242325
2023-9-25,2023-10-2,47,552 purple Bakharwal dog,53.396828374645736,-2.982180356938102
2023-9-25,2023-10-2,37,600 teal White Swiss Shepherd Dog,53.39998426565241,-2.9575142816121343
2023-10-3,2023-10-10,16,920 mint green Bully Kutta,53.38205062377966,-2.978365467688377
2023-10-11,2023-10-18,18,120 grey Saluki,53.39866332405115,-2.9326467626783597
2023-10-19,2023-10-26,13,336 magenta West Highland White Terrier,53.410786417206864,-2.9745814799321124
2023-10-27,2023-11-3,28,624 red Jonangi,53.392095462440174,-2.948923016709273
2023-11-4,2023-11-11,9,592 teal Tyrolean Hound,53.39017630841531,-2.9456577791557947
2023-11-12,2023-11-19,25,600 pink Schweizerischer Niederlaufhund,53.42186280164707,-2.944923023813999
2023-11-20,2023-11-27,40,432 blue Tamaskan Dog,53.40852260519381,-2.951028742873291
2023-11-28,2023-12-5,2,816 mint green Spinone Italiano,53.389055612698925,-2.980254694665632
2023-12-14,2023-12-21,23,744 magenta Afghan Hound,53.37805673616609,-2.9597791465014325
2023-12-14,2023-12-21,8,512 mint green Austrian Black and Tan Hound,53.36508745452954,-2.9416680587225983
2023-12-30,2024-1-6,22,928 tan Grand Anglo-Français Blanc et Orange,53.42755377037294,-2.9426083229085407
2024-1-7,2024-1-14,26,664 magenta Drever,53.39375736270356,-2.957841583584127
2024-1-7,2024-1-14,8,920 green Wirehaired Pointing Griffon,53.38070141468088,-2.9751139505148103
2024-1-15,2024-1-22,17,328 indigo Terrier Brasileiro,53.39582779974409,-2.9572628921207524
2024-1-23,2024-1-30,13,704 indigo Treeing Tennessee Brindle,53.398706334916895,-2.983934425108714
2024-1-31,2024-2-7,45,336 yellow Airedale Terrier,53.411533542694805,-2.9543495665069486
2024-2-8,2024-2-15,6,176 mint green Boston Terrier,53.38637067583761,-2.9432534810413244
2024-2-24,2024-3-2,17,784 red Kokoni,53.399987626925,-2.9416401121885656
2024-2-24,2024-3-2,39,576 olive Šarplaninac,53.36723058688631,-2.940486037616779
2024-3-11,2024-3-18,15,880 white Bhotia,53.392739232626994,-2.9475782640494117
2024-3-11,2024-3-18,38,520 yellow Pshdar Dog,53.38490231226082,-2.962221078794869
2024-3-19,2024-3-26,11,816 blue Pomeranian,53.383879678358326,-2.9447793919895275
2024-3-27,2024-4-3,38,816 tan Cão da Serra de Aires,53.407818155492215,-2.9359127283869384
2022-1-9,2022-1-16,24,160 pink Russian Spaniel,53.385644829710095,-2.953876195346197
2022-1-17,2022-1-24,34,392 cyan Picardy Spaniel,53.42532339874081,-2.9533675119504323
2022-1-25,2022-2-1,15,144 gold American Hairless Terrier,53.381074835398614,-2.9385142212641995
2022-2-2,2022-2-9,34,176 red Pudelpointer,53.39838806593364,-2.941153653659512
2022-2-10,2022-2-17,27,536 black Japanese Spitz,53.38971199602389,-2.9587249779600597
2022-2-10,2022-2-17,13,248 yellow Koolie,53.393628487258674,-2.950106845211849
2022-2-18,2022-2-25,11,448 maroon Russian Toy,53.38394652906681,-2.9447803855572374
2022-2-26,2022-3-5,21,240 plum Briard,53.39913185080453,-2.93500794963893
2022-3-14,2022-3-21,3,840 fuchsia Old Danish Pointer,53.37676170964478,-2.9756512941420397
2022-3-22,2022-3-29,14,120 grey English Toy Terrier,53.363472012361726,-2.9616946355464506
2022-3-30,2022-4-6,36,736 teal Redbone Coonhound,53.39144626890037,-2.9372571471367337
2022-3-30,2022-4-6,27,568 pink Puli,53.41720532169319,-2.92707038870617
2022-4-7,2022-4-14,38,528 orchid French Bulldog,53.39394730769547,-2.9541441321241564
2022-4-15,2022-4-22,29,832 maroon Greek Shepherd,53.36411978481496,-2.9295049314013113
2022-5-1,2022-5-8,27,752 purple Wirehaired Vizsla,53.41403015943324,-2.948297066456007
2022-5-9,2022-5-16,18,504 fuchsia American Bully,53.36364577391574,-2.9392867438169787
2022-5-17,2022-5-24,47,824 ivory Telomian,53.401241170459734,-2.934444336448223
2022-5-17,2022-5-24,33,984 azure Galgo Español,53.39505016189852,-2.9679815645821463
2022-6-2,2022-6-9,26,120 yellow Dogue de Bordeaux,53.39576939698113,-2.938090497001781
2022-6-2,2022-6-9,48,616 sky blue Pomeranian,53.377088889577976,-2.9613699248045577
2022-6-18,2022-6-25,5,856 sky blue Chinese Chongqing Dog,53.402695645848745,-2.9495499814962614
2022-6-26,2022-7-3,21,992 red Alaskan Malamute,53.39377172685654,-2.948576964897711
2022-6-26,2022-7-3,44,720 olive Chow Chow,53.393596271181856,-2.9494485982654624
2022-7-4,2022-7-11,27,112 fuchsia Gończy Polski,53.393925610475634,-2.9475715914825287
2022-7-12,2022-7-19,28,520 yellow Sussex Spaniel,53.41265477646096,-2.9713551999772108
2022-7-20,2022-7-27,5,128 ivory Japanese Chin,53.38999466494789,-2.9489913283721307
2022-8-5,2022-8-12,28,256 silver Pug,53.37660314745721,-2.9534618061672973
2022-8-13,2022-8-20,27,360 sky blue Boxer,53.3950160379227,-2.9489944269020043
2022-8-21,2022-8-28,14,192 plum Basset Bleu de Gascogne,53.42122197011993,-2.951105541745278
2022-8-21,2022-8-28,14,056 orange Afghan Hound,53.36829012794039,-2.9465241517270897
2022-8-29,2022-9-5,31,840 black Rottweiler,53.39047296271886,-2.968873042158407
2022-9-6,2022-9-13,12,352 orange American Water Spaniel,53.377129384398636,-2.944164662428534
2022-9-22,2022-9-29,23,928 orange Norwegian Lundehund,53.38517437940319,-2.9256368391788783
2022-9-30,2022-10-7,13,440 green Tamaskan Dog,53.38119971243836,-2.916719225852262
2022-9-30,2022-10-7,20,048 pink Bull Terrier,53.39143639384445,-2.949055584224311
2022-10-16,2022-10-23,2,728 orange Podenco Canario,53.3874869351417,-2.9407600906265543
2022-10-16,2022-10-23,47,456 cyan Basset Hound,53.41854777829931,-2.9738406423130073
2022-10-24,2022-10-31,3,624 lavender Romanian Mioritic Shepherd Dog,53.4084394936404,-2.9789564050740864
2022-11-9,2022-11-16,47,776 red Pomeranian,53.39817598511229,-2.933326429498834
2022-11-17,2022-11-24,14,072 orange Bergamasco Shepherd,53.3940542292991,-2.949244633959893
2022-11-17,2022-11-24,1,488 sky blue Australian Terrier,53.41330995113363,-2.9314799771416347
2022-11-25,2022-12-2,4,112 cyan Cane Corso,53.37112164772871,-2.94544850499949
2022-12-11,2022-12-18,24,640 silver Telomian,53.37009991020279,-2.9224410078801384
2022-12-19,2022-12-26,31,048 mint green Smooth Collie,53.39957177075549,-2.9235595879233642
2022-12-19,2022-12-26,13,008 ivory Greyhound,53.4036968897111,-2.956087412501347
2022-12-27,2023-1-3,45,552 blue Jack Russell Terrier,53.41502425292792,-2.9536221163626806
2023-1-12,2023-1-19,14,064 green German Roughhaired Pointer,53.38900372069095,-2.938114036384036
2023-1-12,2023-1-19,4,312 sky blue Bluetick Coonhound,53.39206501318628,-2.9261632331482588
2023-1-20,2023-1-27,14,856 fuchsia Wirehaired Pointing Griffon,53.3869085655029,-2.9243057525281984
2023-1-28,2023-2-4,30,592 pink Manchester Terrier,53.398823352251,-2.9811673763489352
2023-2-13,2023-2-20,20,360 azure Newfoundland,53.395552444870766,-2.9496119339104325
2023-2-21,2023-2-28,42,568 cyan Gull Dong,53.39336333800341,-2.930287151505013
2023-2-21,2023-2-28,15,200 olive Barbet,53.38440878800051,-2.956439606194408
2023-3-9,2023-3-16,47,400 indigo Villanuco de Las Encartaciones,53.36813026678075,-2.9398859426428317
2023-3-9,2023-3-16,48,712 black Small Münsterländer,53.413393450606584,-2.9382359560355553
2023-3-17,2023-3-24,23,368 yellow Chesapeake Bay Retriever,53.423698685962634,-2.9432813303510557
2023-4-2,2023-4-9,28,480 teal Slovenský Kopov,53.39834271271105,-2.9358257802449543
2023-4-10,2023-4-17,38,744 cyan Cairn Terrier,53.3877043014589,-2.93817131739263
2023-4-18,2023-4-25,31,072 red Villano de Las Encartaciones,53.390943216791044,-2.9621243487407583
2023-4-18,2023-4-25,19,744 lime Tamaskan Dog,53.37966960267395,-2.950839909344495
2023-5-4,2023-5-11,37,024 gold Bergamasco Shepherd,53.39423695690658,-2.9468589573812096
2023-5-4,2023-5-11,4,952 tan Romanian Mioritic Shepherd Dog,53.39616292491577,-2.946063515343326
2023-5-20,2023-5-27,35,232 violet Bavarian Mountain Hound,53.39144572049109,-2.935330586429586
2023-5-20,2023-5-27,8,224 turquoise Dalmatian,53.40583590885329,-2.9402803305705447
2023-5-28,2023-6-4,9,672 cyan Bernese Mountain Dog,53.37728046610434,-2.9311826213196355
2023-6-13,2023-6-20,23,472 yellow Azawakh,53.3680358419771,-2.9690876867796305
2023-6-21,2023-6-28,31,064 blue Chow Chow,53.37460516038535,-2.937429480249193
2023-6-29,2023-7-6,14,992 tan Kars,53.36049816257582,-2.9566268756731233
2023-7-7,2023-7-14,26,984 violet King Shepherd,53.36170383875035,-2.963747332057892
2023-7-7,2023-7-14,39,304 azure Wirehaired Vizsla,53.38781869443609,-2.935091550341781
2023-7-23,2023-7-30,44,584 black Perro de Presa Mallorquin,53.403067639452395,-2.9587910463499156
2023-7-23,2023-7-30,25,928 teal Dogo Argentino,53.38936665853817,-2.947418344654011
2023-7-31,2023-8-7,10,736 black Chien Français Tricolore,53.38981018569349,-2.9493746123253004
2023-8-16,2023-8-23,18,856 lavender Wirehaired Vizsla,53.398880556186604,-2.9425113020001845
2023-8-24,2023-8-31,40,888 plum Broholmer,53.410551679592096,-2.942127164072531
2023-9-1,2023-9-8,44,456 green Ibizan Hound,53.41100678008183,-2.9419877725866854
2023-9-9,2023-9-16,22,712 yellow Rafeiro do Alentejo,53.40364310166105,-2.951494318894902
2023-9-17,2023-9-24,39,352 lime Griffon Nivernais,53.39484109483904,-2.9823932417519927
2023-9-25,2023-10-2,22,784 black New Guinea Singing Dog,53.4037040386797,-2.953738687269947
2023-9-25,2023-10-2,44,248 sky blue Bull Terrier,53.391406617599344,-2.9549094568945975
2023-10-11,2023-10-18,1,768 plum Schapendoes,53.41914411692438,-2.9561072226861143
2023-10-19,2023-10-26,4,960 orchid Kishu,53.40586920242367,-2.9708112526067225
2023-10-19,2023-10-26,36,688 orchid Bearded Collie,53.37839733778411,-2.92992782323563
2023-11-4,2023-11-11,39,512 white Lakeland Terrier,53.39047120115379,-2.913809385430227
2023-11-4,2023-11-11,40,088 red Kai Ken,53.36917444091729,-2.9324088974522056
2023-11-20,2023-11-27,1,088 fuchsia Schweizer Laufhund,53.38951681487766,-2.951159800874734
2023-11-28,2023-12-5,44,576 yellow Schillerstövare,53.411649367150545,-2.948392292389485
2023-12-6,2023-12-13,25,536 orchid Kuchi,53.40255172775993,-2.92287057343151
2023-12-6,2023-12-13,30,400 gold Akbash,53.39106648797537,-2.946694415697152
2023-12-22,2023-12-29,5,944 mint green Löwchen,53.410778968270684,-2.9703684693600962
2023-12-22,2023-12-29,32,640 ivory Australian Stumpy Tail Cattle Dog,53.39455484829144,-2.9480949969646417
2024-1-7,2024-1-14,24,608 gold Broholmer,53.3991635525463,-2.9720430115190766
2024-1-7,2024-1-14,47,064 lavender Villano de Las Encartaciones,53.374645461897906,-2.9551374903429632
2024-1-23,2024-1-30,43,976 teal Akita,53.39983995092835,-2.9378576627607345
2024-1-31,2024-2-7,30,024 black Irish Setter,53.41515183505651,-2.950617380550625
2024-2-8,2024-2-15,22,208 azure Afghan Hound,53.384201543888345,-2.9409271708591405
2024-2-16,2024-2-23,37,328 maroon Chinese Crested Dog,53.3789051890248,-2.9291898183751073
2024-2-16,2024-2-23,39,576 teal Ibizan Hound,53.38063884993154,-2.942307740182173
2024-2-24,2024-3-2,47,512 lime New Guinea Singing Dog,53.39534653252501,-2.9750505900703956
2024-3-11,2024-3-18,3,056 salmon Russian Toy,53.38776872724212,-2.9301310814323642
2024-3-11,2024-3-18,45,376 pink Border Terrier,53.387337146893216,-2.94746969231403
2024-3-27,2024-4-3,36,312 fuchsia Wire Fox Terrier,53.39694072914936,-2.9838784506511047
2024-3-27,2024-4-3,28,248 ivory Greenland Dog,53.384912963255466,-2.9450395220951577
2022-1-9,2022-1-16,47,168 gold Tibetan Terrier,53.393537261728916,-2.9478470862576387
2022-1-17,2022-1-24,32,320 turquoise Tornjak,53.39344574938854,-2.9513749579292607
2022-1-17,2022-1-24,7,984 salmon Shar Pei,53.396195925443976,-2.9399337279174915
2022-2-2,2022-2-9,31,776 turquoise Bruno Jura Hound,53.38233624331313,-2.944379840886427
2022-2-2,2022-2-9,46,568 orange Polish Greyhound,53.39296013492973,-2.948196973472591
2022-2-10,2022-2-17,7,848 pink Pachon Navarro,53.39457303439462,-2.9309008378398858
2022-2-26,2022-3-5,41,224 fuchsia French Spaniel,53.411577809624305,-2.961667550800712
2022-3-6,2022-3-13,32,432 orange Gascon Saintongeois,53.38986167102341,-2.9511272910795014
2022-3-6,2022-3-13,24,336 magenta Pyrenean Sheepdog,53.40750913186151,-2.975270284250314
2022-3-14,2022-3-21,37,600 grey Pembroke Welsh Corgi,53.39193060130701,-2.9475761074752427
2022-3-22,2022-3-29,14,344 ivory Miniature Schnauzer,53.39888108900726,-2.9429802164078183
2022-4-7,2022-4-14,45,856 blue Finnish Spitz,53.367950835179194,-2.947131060690367
2022-4-15,2022-4-22,22,792 orchid Cimarrón Uruguayo,53.40547247885258,-2.9201436682669737
2022-4-15,2022-4-22,22,872 lavender Curly-Coated Retriever,53.38566078287567,-2.9567877381052767
2022-4-23,2022-4-30,21,264 orchid Bouvier des Flandres,53.40782703647128,-2.9395803399836495
2022-5-9,2022-5-16,10,040 pink Dachshund,53.38596780054361,-2.9528253956274284
2022-5-9,2022-5-16,5,336 white Alaskan Husky,53.383558957449196,-2.9656112474574456
2022-5-17,2022-5-24,10,928 teal Pshdar Dog,53.39987434181221,-2.969877919911255
2022-6-2,2022-6-9,23,912 purple Polish Tatra Sheepdog,53.395182446722174,-2.941260570767895
2022-6-10,2022-6-17,44,312 turquoise Grand Anglo-Français Blanc et Orange,53.392816148260856,-2.9158617690796973
2022-6-18,2022-6-25,6,904 magenta Dutch Shepherd,53.41700474248424,-2.97405319825873
2022-6-18,2022-6-25,11,096 cyan Pudelpointer,53.375289228338595,-2.9594176684157674
2022-7-4,2022-7-11,33,848 indigo Perro de Presa Canario,53.42329609789061,-2.963791048443568
2022-7-4,2022-7-11,17,936 grey Glen of Imaal Terrier,53.3911876934405,-2.9560910525289046
2022-7-20,2022-7-27,7,952 turquoise Phu Quoc Ridgeback,53.37025696588895,-2.934076533194002
2022-7-28,2022-8-4,40,376 red Cantabrian Water Dog,53.374805225829725,-2.972229925062038
2022-8-5,2022-8-12,46,664 salmon Jindo,53.376600818702734,-2.9340000434270905
2022-8-13,2022-8-20,38,848 blue Canadian Eskimo Dog,53.381544295120094,-2.9375010276816056
2022-8-21,2022-8-28,45,584 silver Dogo Guatemalteco,53.38852013857548,-2.9508474206082838
2022-8-21,2022-8-28,21,216 yellow Sloughi,53.40270348175558,-2.928655551006159
2022-8-29,2022-9-5,11,416 maroon Cantabrian Water Dog,53.39819473894765,-2.9398384989433453
2022-9-14,2022-9-21,7,952 orchid Indian pariah dog,53.38276033376574,-2.939281005297289
2022-9-14,2022-9-21,25,400 white Hanover Hound,53.416501338650065,-2.9213848037127264
2022-9-22,2022-9-29,6,256 azure Ratonero Mallorquin,53.39478984352445,-2.9305158509946523
2022-10-8,2022-10-15,41,280 lavender Norfolk Terrier,53.40164261941847,-2.9403835135022973
2022-10-8,2022-10-15,38,480 azure Banjara Hound,53.42009982263481,-2.9664096457585174
2022-10-24,2022-10-31,8,968 salmon Taiwan Dog,53.4205005731958,-2.9377767386449705
2022-11-1,2022-11-8,16,208 gold Poitevin,53.39853368152259,-2.950408639056377
2022-11-9,2022-11-16,29,240 ivory Swedish Elkhound,53.38095254231868,-2.96750654287257
2022-11-9,2022-11-16,47,064 black Black Norwegian Elkhound,53.37974750658777,-2.9791268496292105
2022-11-25,2022-12-2,20,456 grey Perro de Presa Mallorquin,53.3982171853871,-2.938842492285403
2022-11-25,2022-12-2,32,576 white Azawakh,53.38696648136915,-2.93513345921599
2022-12-3,2022-12-10,36,040 tan Flat-Coated Retriever,53.41514159923144,-2.9596748075520054
2022-12-19,2022-12-26,4,768 azure Pastore della Lessinia e del Lagorai,53.38543107650024,-2.9408803230304557
2022-12-27,2023-1-3,8,944 blue Perro de Presa Canario,53.38818682767281,-2.9455756106357285
2022-12-27,2023-1-3,15,264 cyan American Staffordshire Terrier,53.389898818839406,-2.9625892728098506
2023-1-12,2023-1-19,9,128 lavender Mackenzie River Husky,53.39309444006645,-2.958840552303286
2023-1-12,2023-1-19,12,200 black Barbado da Terceira,53.410175433073995,-2.9660011715890278
2023-1-28,2023-2-4,39,176 ivory Vikhan,53.38129940155161,-2.9459257806291816
2023-1-28,2023-2-4,33,240 mint green Romanian Mioritic Shepherd Dog,53.382890927937375,-2.940367453109957
2023-2-5,2023-2-12,46,616 grey Norwegian Elkhound,53.38784339696908,-2.9396717817071476
2023-2-21,2023-2-28,33,888 white Peruvian Inca Orchid,53.40767849020098,-2.916571923569677
2023-2-21,2023-2-28,9,512 magenta English Toy Terrier,53.377434257147364,-2.9240311837734225
2023-3-1,2023-3-8,6,200 azure Alaskan Husky,53.377445198829136,-2.940163234857323
2023-3-17,2023-3-24,47,320 azure Cirneco dell'Etna,53.39406358376992,-2.955575240491953
2023-3-25,2023-4-1,48,320 azure Kerry Blue Terrier,53.408669389492395,-2.975944870136914
2023-4-2,2023-4-9,39,944 silver Pharaoh Hound,53.3937650852761,-2.9202947479088834
2023-4-10,2023-4-17,10,648 violet Leonberger,53.418557796249765,-2.9671530209020602
2023-4-10,2023-4-17,16,208 salmon Taiwan Dog,53.39296269734918,-2.9488832216089804
2023-4-26,2023-5-3,39,880 violet Bohemian Shepherd,53.39732449544964,-2.9418356875191876
2023-4-26,2023-5-3,1,408 green Yorkshire Terrier,53.39327046647545,-2.9404495608571324
2023-5-4,2023-5-11,30,376 lavender Cane Corso,53.38189517035032,-2.970880908582444
2023-5-12,2023-5-19,30,552 magenta Phalène,53.39014352104496,-2.9366946974007533
2023-5-20,2023-5-27,15,280 fuchsia Chinese Crested Dog,53.39571952527059,-2.951563801359839
2023-6-5,2023-6-12,23,800 salmon Samoyed,53.383027943491435,-2.9548935208205194
2023-6-13,2023-6-20,22,416 black Boykin Spaniel,53.4037557428252,-2.957771103496839
2023-6-13,2023-6-20,11,192 gold Greek Shepherd,53.39775766777026,-2.942916359654987
2023-6-21,2023-6-28,19,696 violet Mudi,53.398469175344864,-2.9450024929193432
2023-6-29,2023-7-6,9,368 grey Kai Ken,53.38468164799935,-2.933290498395195
2023-7-7,2023-7-14,31,376 salmon Pointer,53.399759727272894,-2.9386460579390814
2023-7-15,2023-7-22,31,360 gold Kerry Beagle,53.39571862331843,-2.953873129383396
2023-7-23,2023-7-30,41,528 white Stabyhoun,53.405131628936395,-2.9319900720041687
2023-8-8,2023-8-15,10,656 orange Czechoslovakian Wolfdog,53.404600806112406,-2.939218509886473
2023-8-8,2023-8-15,28,760 white Welsh Terrier,53.38268660391337,-2.968309116203841
2023-8-16,2023-8-23,20,376 lavender American Staffordshire Terrier,53.394617068182114,-2.939189534100933
2023-8-24,2023-8-31,43,152 purple Volpino Italiano,53.38725973101257,-2.96342989571383
2023-9-9,2023-9-16,34,272 orange Chilean Terrier,53.384788457494395,-2.981291937995593
2023-9-9,2023-9-16,29,384 gold Teddy Roosevelt Terrier,53.41017783089134,-2.9224262910252037
2023-9-25,2023-10-2,3,736 fuchsia American Bully,53.38153339944078,-2.964480681451164
2023-10-3,2023-10-10,12,856 plum Saint-Usuge Spaniel,53.37699217010951,-2.974489372926314
2023-10-11,2023-10-18,4,184 magenta White Swiss Shepherd Dog,53.39312894265765,-2.949774884635417
2023-10-19,2023-10-26,31,864 azure Chinese Chongqing Dog,53.38189038752111,-2.916634739592496
2023-10-19,2023-10-26,37,120 indigo American Bulldog,53.395495717641225,-2.9381544505265538
2023-10-27,2023-11-3,47,816 lime Taigan,53.41995593682083,-2.9409163461749586
2023-11-12,2023-11-19,43,528 black Mudhol Hound,53.38059730274107,-2.9450966040194544
2023-11-12,2023-11-19,31,944 tan American Pit Bull Terrier,53.38590342316592,-2.940520250593181
2023-11-20,2023-11-27,24,720 sky blue Grand Bleu de Gascogne,53.384053023145405,-2.9765071848393063
2023-11-28,2023-12-5,32,648 teal Curly-Coated Retriever,53.39222015752219,-2.94931963993065
2023-12-6,2023-12-13,14,920 teal Bernese Mountain Dog,53.375977814289264,-2.933433208150518
2023-12-22,2023-12-29,20,888 plum Ariegeois,53.39950247142843,-2.9436728957082323
2023-12-22,2023-12-29,36,216 cyan Northern Inuit Dog,53.393639134091224,-2.9203225040423604
2024-1-7,2024-1-14,40,440 ivory Ratonero Bodeguero Andaluz,53.39168966799706,-2.937727731195764
2024-1-7,2024-1-14,22,296 plum Villano de Las Encartaciones,53.40038623466032,-2.9492422632911257
2024-1-23,2024-1-30,47,648 turquoise Poodle,53.39990060444116,-2.934877449407395
2024-1-31,2024-2-7,48,104 sky blue Australian Cattle Dog,53.416972668525155,-2.9657433733342486
2024-1-31,2024-2-7,17,208 salmon English Foxhound,53.39270661820231,-2.956543676313572
2024-2-16,2024-2-23,48,224 gold Greyhound,53.391234295208974,-2.943211094913522
2024-2-16,2024-2-23,5,480 plum Griffon Bleu de Gascogne,53.386835977660084,-2.950929874609187
2024-2-24,2024-3-2,17,176 grey Bull Terrier,53.3939025,-2.9486548999999513
2024-3-3,2024-3-10,15,176 gold Border Terrier,53.411187001860974,-2.9620803931700266
2024-3-19,2024-3-26,32,072 sky blue Gascon Saintongeois,53.394336247606006,-2.9470838673299795
2024-3-19,2024-3-26,13,984 pink Ratonero Valenciano,53.40744022177049,-2.946727165701418
2024-3-27,2024-4-3,12,440 purple Keeshond,53.39240393846984,-2.9622197953551677
2022-1-1,2022-1-8,42,192 turquoise Rafeiro do Alentejo,53.373602046295474,-2.9617554987854646
2022-1-9,2022-1-16,31,216 teal Boston Terrier,53.38106047775648,-2.9453067462083027
2022-1-17,2022-1-24,36,664 black Japanese Terrier,53.38721934190747,-2.9201356917699286
2022-1-25,2022-2-1,14,328 magenta Pharaoh Hound,53.39034396233439,-2.9445815545107052
2022-2-10,2022-2-17,32,368 plum Cavalier King Charles Spaniel,53.397988144914194,-2.9183477235496866
2022-2-10,2022-2-17,8,000 silver Taigan,53.38882828933268,-2.9661856008184486
2022-2-26,2022-3-5,23,584 silver Transylvanian Hound,53.389700807563244,-2.964151707156475
2022-3-6,2022-3-13,15,864 turquoise Artois Hound,53.396619902664845,-2.9537821482700792
2022-3-6,2022-3-13,9,136 teal Russian Spaniel,53.39398616168118,-2.945064919702645
2022-3-14,2022-3-21,44,912 maroon German Hound,53.391765621999625,-2.9792602217796684
2022-3-30,2022-4-6,17,952 blue Norrbottenspets,53.38546654469008,-2.938144352943141
2022-3-30,2022-4-6,23,424 fuchsia Dogo Sardesco,53.39152208466278,-2.958305714308949
2022-4-15,2022-4-22,32,464 black Barbet,53.39125549040175,-2.942007493803658
2022-4-15,2022-4-22,20,128 salmon Danish-Swedish Farmdog,53.401601572201955,-2.9315172856609024
2022-5-1,2022-5-8,16,560 magenta Bernese Mountain Dog,53.38568335262459,-2.950553618645131
2022-5-9,2022-5-16,9,880 magenta Aidi,53.393913413623096,-2.9491652183144197
2022-5-17,2022-5-24,28,424 azure Black Norwegian Elkhound,53.4079441952943,-2.9573445848494657
2022-5-17,2022-5-24,6,968 turquoise Braque du Bourbonnais,53.40727605833562,-2.9293121443009795
2022-6-2,2022-6-9,17,872 pink Cimarrón Uruguayo,53.40910229070525,-2.970860808066732
2022-6-10,2022-6-17,27,016 green American Bully,53.40202997695851,-2.9268842955196988
2022-6-18,2022-6-25,44,640 white Austrian Black and Tan Hound,53.39621634342634,-2.9497104077294125
2022-6-18,2022-6-25,6,288 purple Mahratta Greyhound,53.391604029797385,-2.950772564648787
2022-7-4,2022-7-11,19,224 orchid Styrian Coarse-haired Hound,53.4028219025127,-2.9781592788086755
2022-7-12,2022-7-19,31,136 lime Pampas Deerhound,53.419706684296756,-2.942913666943923
2022-7-20,2022-7-27,23,104 ivory Galician Shepherd Dog,53.420393478165956,-2.9376112338781013
2022-7-28,2022-8-4,24,848 yellow Burgos Pointer,53.410796068137905,-2.9634270413303057
2022-8-5,2022-8-12,17,368 ivory Cardigan Welsh Corgi,53.376586470836926,-2.974165120818043
2022-8-13,2022-8-20,13,848 tan Slovakian Wirehaired Pointer,53.38523194793495,-2.9735233724798036
2022-8-13,2022-8-20,6,104 black Gull Dong,53.39341308621246,-2.949383349279401
2022-8-21,2022-8-28,15,248 azure Chihuahua,53.39283871325551,-2.942377391701939
2022-9-6,2022-9-13,41,080 teal Griffon Fauve de Bretagne,53.391486947457025,-2.9352775492260434
2022-9-14,2022-9-21,7,840 sky blue Carpathian Shepherd Dog,53.39362672604377,-2.9684972637060127
2022-9-14,2022-9-21,5,480 violet Golden Retriever,53.40418093611541,-2.9661719606502857
2022-9-30,2022-10-7,22,328 red Old Danish Pointer,53.388851386287946,-2.9403339228305185
2022-10-8,2022-10-15,46,656 red Entlebucher Mountain Dog,53.377548153854285,-2.9468803905583627
2022-10-16,2022-10-23,25,656 orchid Slovenský Cuvac,53.408970503718095,-2.930437831042809
2022-10-24,2022-10-31,45,960 fuchsia Molossus of Epirus,53.395057891115556,-2.964929950036435
2022-10-24,2022-10-31,48,632 plum Schapendoes,53.379212073531676,-2.951640123145353
2022-11-9,2022-11-16,17,856 silver Sinhala Hound,53.380128597769776,-2.941882350433616
2022-11-17,2022-11-24,25,512 turquoise Dogo Argentino,53.406906293860395,-2.9521270537177315
2022-11-25,2022-12-2,12,096 lime Podenco Canario,53.379780938474944,-2.9547372290674048
2022-11-25,2022-12-2,4,176 orchid Old English Sheepdog,53.406588822143476,-2.9525820706026025
2022-12-11,2022-12-18,46,552 red Levriero Sardo,53.39808565350853,-2.9582902390957315
2022-12-11,2022-12-18,2,528 cyan German Shorthaired Pointer,53.384474660197135,-2.950463553838972
2022-12-19,2022-12-26,36,176 gold Dandie Dinmont Terrier,53.42919428722238,-2.945787640720596
2022-12-27,2023-1-3,21,608 yellow Scottish Deerhound,53.3899355342142,-2.941028095118895
2023-1-4,2023-1-11,21,400 mint green Terrier Brasileiro,53.39643740457059,-2.9637929999169046
2023-1-12,2023-1-19,21,856 salmon Giant Schnauzer,53.39467314518418,-2.960952857616121
2023-1-20,2023-1-27,24,360 plum Aidi,53.39673067425556,-2.9432924601628656
2023-1-28,2023-2-4,34,240 turquoise Kuchi,53.42494911903662,-2.9663944891273104
2023-2-13,2023-2-20,7,872 sky blue Kaikadi,53.39303359416578,-2.948172148934418
2023-2-21,2023-2-28,44,288 cyan Trigg Hound,53.39129233392179,-2.982233359314023
2023-3-1,2023-3-8,17,200 lime Griffon Fauve de Bretagne,53.373148484871386,-2.9624360087411787
2023-3-9,2023-3-16,2,144 red German Spaniel,53.39027823049126,-2.957602220252852
2023-3-17,2023-3-24,32,104 tan Whippet,53.39836609815251,-2.9514312244398297
2023-3-17,2023-3-24,28,520 white Basque Shepherd Dog,53.37000348270147,-2.9241923062925252
2023-4-2,2023-4-9,11,416 purple Boerboel,53.392592062242684,-2.950568565099502
2023-4-10,2023-4-17,22,080 grey Pshdar Dog,53.39398398567044,-2.948398906039074
2023-4-10,2023-4-17,38,944 turquoise Pharaoh Hound,53.40861237608595,-2.9470005250805116
2023-4-26,2023-5-3,25,632 tan Wire Fox Terrier,53.42763788794516,-2.939379841271716
2023-5-4,2023-5-11,13,840 silver Chortai,53.397822360567666,-2.9229104702019413
2023-5-4,2023-5-11,20,888 gold Northern Inuit Dog,53.429121980959124,-2.9460117927451392
2023-5-12,2023-5-19,39,448 yellow Polish Hound,53.410429862976635,-2.966241342375156
2023-5-20,2023-5-27,21,216 blue Caucasian Shepherd Dog,53.3824909250261,-2.9361921060402665
2023-6-5,2023-6-12,34,768 purple Billy,53.393830855953325,-2.945431896188211
2023-6-5,2023-6-12,15,336 magenta Field Spaniel,53.39408361781794,-2.943168473715218
2023-6-13,2023-6-20,26,208 ivory Romanian Mioritic Shepherd Dog,53.41259655421927,-2.933662051596002
2023-6-21,2023-6-28,2,048 gold Portuguese Podengo,53.38561282412094,-2.9334589172045753
2023-6-29,2023-7-6,31,496 silver Mountain Cur,53.37899923886119,-2.966074408100667
2023-7-7,2023-7-14,23,552 sky blue Volpino Italiano,53.38931356856987,-2.9370168079722134
2023-7-23,2023-7-30,46,168 blue Basque Shepherd Dog,53.38002863332253,-2.940085427076383
2023-7-31,2023-8-7,31,992 silver Cesky Fousek,53.402048324101095,-2.9173982238942244
2023-7-31,2023-8-7,3,680 indigo Norwegian Buhund,53.3765759473846,-2.969314550925219
2023-8-8,2023-8-15,13,672 mint green Staffordshire Bull Terrier,53.36265374111464,-2.9505583917249396
2023-8-24,2023-8-31,17,656 white White Shepherd,53.42019779609566,-2.9718157101602856
2023-8-24,2023-8-31,13,776 red Karelian Bear Dog,53.37556205076797,-2.9684077653028
2023-9-9,2023-9-16,43,536 blue Griffon Nivernais,53.40264835143253,-2.9802138936098572
2023-9-17,2023-9-24,30,688 pink Cavalier King Charles Spaniel,53.40256494027843,-2.9391266931295377
2023-9-17,2023-9-24,45,592 teal Barbet,53.38849297964546,-2.9320893468224085
2023-9-25,2023-10-2,5,328 salmon Old English Sheepdog,53.3950660737178,-2.9486182745202996
2023-10-3,2023-10-10,20,744 fuchsia American Staffordshire Terrier,53.38895877916922,-2.9363484104724193
2023-10-11,2023-10-18,22,328 violet Havanese,53.392285632246534,-2.981479952995983
2023-10-19,2023-10-26,43,816 red Australian Stumpy Tail Cattle Dog,53.394478767885104,-2.9570528514534544
2023-10-27,2023-11-3,13,552 salmon Poitevin,53.409688139203844,-2.9598178367735954
2023-11-4,2023-11-11,18,912 silver Bhotia,53.39373227525513,-2.9492674941024006
2023-11-20,2023-11-27,42,784 mint green Picardy Spaniel,53.408653719009585,-2.9211530505247083
2023-11-28,2023-12-5,1,384 lavender Norfolk Terrier,53.39906313266267,-2.950118064134017
2023-11-28,2023-12-5,29,896 violet Burgos Pointer,53.40027483910465,-2.9454207236560705
2023-12-14,2023-12-21,13,344 red Dogue Brasileiro,53.370661283692364,-2.9443245187255798
2023-12-14,2023-12-21,43,784 grey Artois Hound,53.37904918723219,-2.9515558554329573
2023-12-30,2024-1-6,3,784 maroon Bakharwal dog,53.40193192965103,-2.9302923956952327
2024-1-7,2024-1-14,38,936 silver Norwich Terrier,53.40773188208062,-2.979452780176871
2024-1-15,2024-1-22,35,888 magenta Catalan Sheepdog,53.410922265535945,-2.94194393997509
2024-1-15,2024-1-22,22,784 olive Russian Toy,53.377472090668014,-2.950009505428625
2024-1-31,2024-2-7,37,680 fuchsia Huntaway,53.38616066256458,-2.9489110855364515
2024-1-31,2024-2-7,5,232 mint green Sardinian Shepherd Dog,53.38019325041634,-2.939242430383956
2024-2-8,2024-2-15,16,512 ivory Kokoni,53.3973145757433,-2.932342681777527
2024-2-24,2024-3-2,6,496 mint green Segugio Maremmano,53.39713339399425,-2.9539428483599295
2024-3-3,2024-3-10,9,624 orchid Phalène,53.376550014264076,-2.934594724994099
2024-3-3,2024-3-10,39,120 plum Chinese Chongqing Dog,53.38537707612552,-2.9569588502761235
2024-3-11,2024-3-18,41,816 indigo Silken Windhound,53.38800503703741,-2.9730991864820453
2024-3-27,2024-4-3,3,720 lime Ratonero Valenciano,53.419961549962466,-2.948656298672745
2024-4-4,2024-4-11,11,120 grey Australian Kelpie,53.39663247424244,-2.9572963941930084
2022-1-9,2022-1-16,12,584 turquoise Braque Francais,53.41177117040707,-2.942623219133452
2022-1-17,2022-1-24,36,856 yellow Thai Bangkaew Dog,53.3710183940128,-2.921976707439285
2022-1-25,2022-2-1,12,848 green Standard Schnauzer,53.39901119184425,-2.9164977917129136
2022-2-2,2022-2-9,22,784 fuchsia Cane Corso,53.3929597021197,-2.9765069075886004
2022-2-2,2022-2-9,18,408 mint green Keeshond,53.35913471825816,-2.955405234258592
2022-2-10,2022-2-17,4,472 green Norfolk Terrier,53.42544766960511,-2.9645786420140894
2022-2-26,2022-3-5,23,168 green Telomian,53.41841891005949,-2.9655994904882164
2022-2-26,2022-3-5,48,968 green Doberman Pinscher,53.395113967555716,-2.9483322391076854
2022-3-6,2022-3-13,3,472 olive Giant Schnauzer,53.40612131425593,-2.918512776959801
2022-3-22,2022-3-29,6,960 lavender Black and Tan Coonhound,53.377886164987906,-2.925293314862415
2022-3-22,2022-3-29,45,384 fuchsia Old English Terrier,53.40785927158791,-2.9676922971904105
2022-4-7,2022-4-14,28,400 white Grand Anglo-Français Blanc et Noir,53.38881943578532,-2.9570821454678935
2022-4-15,2022-4-22,42,752 pink Alano Español,53.398594766428,-2.94149438225827
2022-4-15,2022-4-22,28,592 black Bosnian Coarse-haired Hound,53.3941004373118,-2.9489093595940403
2022-5-1,2022-5-8,31,296 orange Norfolk Terrier,53.39686606374222,-2.9439281526599643
2022-5-1,2022-5-8,37,264 purple Black Norwegian Elkhound,53.395961498962684,-2.9498526437924966
2022-5-17,2022-5-24,37,240 grey Ratonero Mallorquin,53.39375221545121,-2.950493498196238
2022-5-17,2022-5-24,42,720 fuchsia Cesky Terrier,53.402727280860056,-2.9708573331940897
2022-6-2,2022-6-9,24,328 mint green Northern Inuit Dog,53.3986493039718,-2.969294664802078
2022-6-10,2022-6-17,15,152 cyan Rat Terrier,53.39316611036429,-2.9637709237134686
2022-6-18,2022-6-25,35,960 green Berger Picard,53.39159772636017,-2.9476674420367317
2022-6-26,2022-7-3,45,192 azure German Spitz,53.41118269085783,-2.9525465601415135
2022-6-26,2022-7-3,40,040 silver Miniature American Shepherd,53.3953505894495,-2.9472539152706076
2022-7-4,2022-7-11,12,584 violet Finnish Lapphund,53.36198322074677,-2.952845764809922
2022-7-20,2022-7-27,45,576 sky blue Landseer,53.417113780469755,-2.923234814144962
2022-7-28,2022-8-4,31,992 tan Basset Hound,53.36097784355272,-2.962626051260372
2022-8-5,2022-8-12,27,384 violet Grand Anglo-Français Tricolore,53.42035643930873,-2.949604572159501
2022-8-13,2022-8-20,34,576 white American Bulldog,53.42323940787527,-2.9570976420191073
2022-8-21,2022-8-28,15,328 red Cardigan Welsh Corgi,53.403079041564716,-2.946821111295776
2022-8-21,2022-8-28,43,192 sky blue English Springer Spaniel,53.39729388140363,-2.936334353005236
2022-8-29,2022-9-5,9,880 gold Tamaskan Dog,53.39403998203854,-2.9482856433826328
2022-9-6,2022-9-13,7,144 pink Manchester Terrier,53.411586257964956,-2.967156421989557
2022-9-22,2022-9-29,29,408 turquoise East European Shepherd,53.382406153992925,-2.959915043753199
2022-9-30,2022-10-7,21,208 pink Icelandic Sheepdog,53.40269923165189,-2.9673377667847944
2022-10-8,2022-10-15,7,760 plum Kintamani,53.39286563499715,-2.9509280340444093
2022-10-8,2022-10-15,39,648 purple Volpino Italiano,53.40714519557253,-2.9371354947543296
2022-10-24,2022-10-31,45,656 red Perro de Presa Canario,53.4001522406574,-2.97073927610586
2022-10-24,2022-10-31,43,536 maroon Wire Fox Terrier,53.382815684729174,-2.952146371271283
2022-11-9,2022-11-16,35,624 white Staffordshire Bull Terrier,53.3850034025296,-2.960495029647859
2022-11-9,2022-11-16,8,936 magenta Segugio Maremmano,53.38314455651075,-2.9563956534157114
2022-11-17,2022-11-24,43,312 blue Thai Ridgeback,53.39238769166326,-2.943565224067129
2022-12-3,2022-12-10,13,176 indigo Plummer Terrier,53.42480205175511,-2.9459225848373762
2022-12-11,2022-12-18,24,744 sky blue Cirneco dell'Etna,53.401627299750295,-2.967157326688948
2022-12-19,2022-12-26,9,920 purple Rhodesian Ridgeback,53.39455453284091,-2.974822242645814
2022-12-27,2023-1-3,18,664 salmon West Siberian Laika,53.375213690253645,-2.923605443439669
2023-1-4,2023-1-11,16,448 cyan West Siberian Laika,53.40812453556142,-2.9724643144153333
2023-1-12,2023-1-19,40,520 indigo Kishu,53.373292626010965,-2.925471264845669
2023-1-12,2023-1-19,16,728 purple Vizsla,53.38579187389141,-2.9442249817885795
2023-1-20,2023-1-27,45,936 grey Ariegeois,53.39325803658634,-2.9491681369901244
2023-1-28,2023-2-4,2,112 orchid Portuguese Water Dog,53.42287116442191,-2.9484449799165304
2023-2-5,2023-2-12,47,344 gold Kerry Beagle,53.379092274313855,-2.943264164264974
2023-2-13,2023-2-20,14,864 blue Chien Français Blanc et Orange,53.379939696118726,-2.9474513966956692
2023-3-1,2023-3-8,43,584 tan Swedish Vallhund,53.390452579636666,-2.9645561935924434
2023-3-1,2023-3-8,10,024 cyan Greater Swiss Mountain Dog,53.40367356043656,-2.931795668353516
2023-3-9,2023-3-16,39,056 ivory Jagdterrier,53.40090322077917,-2.9515970615383367
2023-3-17,2023-3-24,41,056 fuchsia Gończy Polski,53.415209616400084,-2.9536553661936296
2023-4-2,2023-4-9,31,144 magenta Leonberger,53.37495115881741,-2.9213018242213593
2023-4-10,2023-4-17,42,536 lime Lupo Italiano,53.392759812662874,-2.9272022664059705
2023-4-10,2023-4-17,46,984 turquoise Blue Lacy,53.398975811184435,-2.936897086191834
2023-4-26,2023-5-3,13,456 olive Jack Russell Terrier,53.39554894517512,-2.913150659962753
2023-5-4,2023-5-11,25,328 orchid Lagotto Romagnolo,53.387838793500485,-2.94930405113314
2023-5-12,2023-5-19,2,920 purple Pointer,53.416804329466025,-2.936016708250918
2023-5-12,2023-5-19,27,736 purple Blue Picardy Spaniel,53.37319271414947,-2.9547585608834197
2023-5-20,2023-5-27,35,920 grey Havanese,53.395567544480784,-2.966370409984961
2023-6-5,2023-6-12,14,808 green German Spaniel,53.39037550120312,-2.9714426933387585
2023-6-13,2023-6-20,29,392 pink Finnish Spitz,53.390946829802814,-2.9498009181021416
2023-6-13,2023-6-20,40,384 yellow Phu Quoc Ridgeback,53.40910965260536,-2.9341601892163
2023-6-29,2023-7-6,11,488 lavender Sinhala Hound,53.39651515339819,-2.9467662685746063
2023-7-7,2023-7-14,42,328 purple Thai Bangkaew Dog,53.40766493276596,-2.9452567008154347
2023-7-15,2023-7-22,37,120 orange Toy Fox Terrier,53.42106243690046,-2.9563395558744787
2023-7-23,2023-7-30,7,680 grey Phu Quoc Ridgeback,53.3783964980404,-2.938141983481387
2023-7-31,2023-8-7,47,712 fuchsia Bichon Frisé,53.40635858372736,-2.9806203364087196
2023-8-8,2023-8-15,34,128 silver Brussels Griffon,53.39575739286405,-2.943564550462497
2023-8-16,2023-8-23,24,536 azure Blue Picardy Spaniel,53.40052383833408,-2.9430187481470966
2023-8-24,2023-8-31,3,280 lime Polish Tatra Sheepdog,53.39193232394347,-2.9396257894380824
2023-8-24,2023-8-31,25,304 gold Otterhound,53.393777915046535,-2.9524766548738626
2023-9-1,2023-9-8,16,792 black English Mastiff,53.41581009202434,-2.9756580076901855
2023-9-9,2023-9-16,20,984 pink German Spaniel,53.40358555608539,-2.918365828316041
2023-9-25,2023-10-2,14,904 orchid American Cocker Spaniel,53.38458061269871,-2.9555682367779355
2023-10-3,2023-10-10,35,112 sky blue Chow Chow,53.39017602472602,-2.9701577215022326
2023-10-11,2023-10-18,34,912 blue Glen of Imaal Terrier,53.41672582360342,-2.9382721558688445
2023-10-11,2023-10-18,21,056 silver Anglo-Français de Petite Vénerie,53.37299217042121,-2.9476026203743686
2023-10-27,2023-11-3,45,712 tan Bedlington Terrier,53.38216416790005,-2.945245010662802
2023-10-27,2023-11-3,8,736 mint green Pumi,53.37227185186189,-2.9771839152211896
2023-11-12,2023-11-19,39,688 teal Lagotto Romagnolo,53.391473794865554,-2.95815509126885
2023-11-20,2023-11-27,1,392 black Schweizerischer Niederlaufhund,53.39179731519223,-2.962546688818634
2023-11-20,2023-11-27,12,280 ivory Stabyhoun,53.393257211122105,-2.9501710079982786
2023-12-6,2023-12-13,16,168 black Airedale Terrier,53.38429091110533,-2.9257776822593087
2023-12-14,2023-12-21,7,672 violet Shikoku,53.3893378235897,-2.953702933568593
2023-12-14,2023-12-21,3,032 gold Grand Anglo-Français Tricolore,53.386871558521214,-2.9562406780136143
2023-12-22,2023-12-29,28,000 indigo German Roughhaired Pointer,53.386682352908295,-2.966946668105038
2023-12-30,2024-1-6,6,848 mint green East European Shepherd,53.40396600714559,-2.9219771747272034
2024-1-15,2024-1-22,44,536 teal Bucovina Shepherd Dog,53.42324376329211,-2.9471205304033674
2024-1-23,2024-1-30,20,400 violet Galgo Español,53.37769187845818,-2.9751862642530114
2024-1-31,2024-2-7,36,808 turquoise Karakachan dog,53.39030759226574,-2.9438066064103623
2024-2-8,2024-2-15,15,168 teal Gull Dong,53.40281191685098,-2.9306628840671465
2024-2-8,2024-2-15,19,368 lavender Welsh Springer Spaniel,53.3789081420652,-2.9545458065537105
2024-2-24,2024-3-2,23,072 red Golden Retriever,53.40116644848009,-2.943266121179022
2024-3-3,2024-3-10,41,632 salmon Berger Picard,53.39631875390816,-2.9584352245698256
2024-3-3,2024-3-10,31,592 turquoise Maremmano-Abruzzese Sheepdog,53.363557995824024,-2.9613464712957693
2024-3-19,2024-3-26,26,280 green Ibizan Hound,53.399085252201864,-2.9532840243729197
2024-3-19,2024-3-26,33,392 maroon Swedish Lapphund,53.39162082620815,-2.9490180344924966
2024-4-4,2024-4-11,32,864 olive Blue Picardy Spaniel,53.393947974914596,-2.9476350433487823
2022-1-1,2022-1-8,33,512 green Italian Greyhound,53.37611532333721,-2.934492417182355
2022-1-9,2022-1-16,38,840 azure Pyrenean Mastiff,53.40803052179372,-2.9238060642766186
2022-1-25,2022-2-1,5,384 red Kerry Blue Terrier,53.3885263019989,-2.9299251426919
2022-2-2,2022-2-9,36,136 orchid West Highland White Terrier,53.39168426061372,-2.947356920442189
2022-2-2,2022-2-9,35,016 lavender Bluetick Coonhound,53.396163442072016,-2.958867050902768
2022-2-18,2022-2-25,22,024 fuchsia Japanese Terrier,53.38841118489409,-2.953913031818388
2022-2-18,2022-2-25,23,528 gold Poodle,53.3897338581055,-2.9476440769871033
2022-3-6,2022-3-13,19,920 violet Cursinu,53.39321519332378,-2.940750595578379
2022-3-6,2022-3-13,2,680 pink English Setter,53.40491470056916,-2.979039485259591
2022-3-14,2022-3-21,32,952 purple Mahratta Greyhound,53.40223502528072,-2.942992563548728
2022-3-22,2022-3-29,4,744 grey Taiwan Dog,53.402914783779494,-2.961617504184005
2022-4-7,2022-4-14,6,104 lavender Akita,53.38978127821427,-2.9515278158172578
2022-4-15,2022-4-22,15,872 orchid Australian Stumpy Tail Cattle Dog,53.39433724060899,-2.9471399647640055
2022-4-23,2022-4-30,15,280 orange Bullmastiff,53.396230060014524,-2.950686480703439
2022-4-23,2022-4-30,19,888 silver Caucasian Shepherd Dog,53.4035938735796,-2.924716000325475
2022-5-1,2022-5-8,33,944 violet Northern Inuit Dog,53.3872430954381,-2.9267373741279243
2022-5-9,2022-5-16,21,280 purple Yakutian Laika,53.42313899860031,-2.9539531163630954
2022-5-17,2022-5-24,24,200 maroon Molossus of Epirus,53.39540861310571,-2.9524889912617027
2022-5-25,2022-6-1,32,424 black Rhodesian Ridgeback,53.40702287739094,-2.9776015130833002
2022-6-10,2022-6-17,27,224 black Kombai,53.39704564831008,-2.94739840646605
2022-6-10,2022-6-17,3,296 lavender Old Danish Pointer,53.39163942224561,-2.947399433075816
2022-6-18,2022-6-25,27,928 tan Finnish Spitz,53.40280073107539,-2.925490893084884
2022-6-26,2022-7-3,36,408 green West Highland White Terrier,53.368111294166034,-2.9269118157690173
2022-7-12,2022-7-19,5,104 tan Bull Terrier,53.392680541878434,-2.9474968303644573
2022-7-12,2022-7-19,27,920 black Rhodesian Ridgeback,53.39099035996497,-2.9461492941073857
2022-7-28,2022-8-4,8,248 red English Foxhound,53.3958136508349,-2.953135883106029
2022-8-5,2022-8-12,18,576 grey Kerry Beagle,53.39751286964561,-2.9541046303735357
2022-8-5,2022-8-12,26,888 violet Ibizan Hound,53.3934828791227,-2.94175438681998
2022-8-21,2022-8-28,24,944 mint green Hygen Hound,53.37487371828807,-2.935083549291221
2022-8-21,2022-8-28,13,816 purple Grand Anglo-Français Blanc et Noir,53.37198787248393,-2.959790339551546
2022-9-6,2022-9-13,42,984 cyan Saint Hubert Jura Hound,53.38970558605737,-2.965918800281088
2022-9-14,2022-9-21,10,712 salmon Dingo,53.37884815030846,-2.955106892348681
2022-9-22,2022-9-29,6,400 tan Bruno Jura Hound,53.42943405648945,-2.9482890425540518
2022-9-22,2022-9-29,6,136 pink Swedish White Elkhound,53.382872967433684,-2.9402576455889857
2022-10-8,2022-10-15,2,504 ivory Brussels Griffon,53.3644338335029,-2.9464438262490376
2022-10-8,2022-10-15,3,184 yellow Miniature Schnauzer,53.41010700843953,-2.938746871045055
2022-10-24,2022-10-31,45,776 maroon Carea Castellano Manchego,53.38786599698422,-2.9200650648489272
2022-10-24,2022-10-31,8,248 blue White Swiss Shepherd Dog,53.393887346807574,-2.9362880542836365
2022-11-9,2022-11-16,41,480 pink Kangal Shepherd Dog,53.393495478709426,-2.919983878944663
2022-11-9,2022-11-16,47,648 orchid Villano de Las Encartaciones,53.39404968831593,-2.951875338175114
2022-11-17,2022-11-24,7,568 lavender Chien Français Blanc et Orange,53.38128860576899,-2.9400838262655498
2022-11-25,2022-12-2,3,616 gold Alpine Dachsbracke,53.38528507383511,-2.949816061201318
2022-12-11,2022-12-18,9,272 turquoise Sealyham Terrier,53.39125525274597,-2.9405134959112047
2022-12-19,2022-12-26,31,200 lavender West Highland White Terrier,53.418697586074046,-2.9418919570530306
2022-12-27,2023-1-3,36,072 lavender Tibetan Terrier,53.3892328412627,-2.94933749665131
2023-1-4,2023-1-11,32,240 plum Phalène,53.39898329393126,-2.9535905012219246
2023-1-12,2023-1-19,47,936 indigo Phalène,53.374637170390535,-2.9496116112957225
2023-1-12,2023-1-19,23,488 plum Shih Tzu,53.40286610080628,-2.9294568457213472
2023-1-28,2023-2-4,2,224 cyan Barbado da Terceira,53.396022769816426,-2.9822319579144505
2023-1-28,2023-2-4,45,952 cyan Catalan Sheepdog,53.36723793060603,-2.958803672695808
2023-2-5,2023-2-12,11,320 cyan Karst Shepherd,53.394382957858596,-2.948709673999474
2023-2-21,2023-2-28,26,056 black Barbet,53.412154620066346,-2.9525025497039223
2023-3-1,2023-3-8,11,320 teal Blue Lacy,53.42020984694765,-2.9289566294643237
2023-3-1,2023-3-8,46,064 salmon Porcelaine,53.38840860854949,-2.9610203863649076
2023-3-17,2023-3-24,34,048 red Scottish Deerhound,53.41892669913489,-2.9455403104193465
2023-3-25,2023-4-1,6,560 azure Grand Basset Griffon Vendéen,53.39840241561638,-2.9545367713783435
2023-3-25,2023-4-1,30,648 silver Hovawart,53.372678934059245,-2.924092050465106
2023-4-2,2023-4-9,43,240 lime Seppala Siberian Sleddog,53.38648248952344,-2.928065064741645
2023-4-10,2023-4-17,27,648 plum English Foxhound,53.4169022543347,-2.9301137763657152
2023-4-18,2023-4-25,7,544 violet Ibizan Hound,53.419349429586255,-2.952505868361527
2023-4-26,2023-5-3,14,520 black English Toy Terrier,53.397319156862515,-2.9358123993052914
2023-5-12,2023-5-19,33,952 orchid Bergamasco Shepherd,53.41096292022521,-2.9247450705673828
2023-5-20,2023-5-27,40,720 gold Whippet,53.40761395339392,-2.958485165007346
2023-5-20,2023-5-27,17,288 orchid Drever,53.40199074197033,-2.953640297517154
2023-6-5,2023-6-12,7,520 orange Dalmatian,53.38348811215451,-2.943931343443751
2023-6-13,2023-6-20,28,696 sky blue Lancashire Heeler,53.37362257930235,-2.9195970364352206
2023-6-21,2023-6-28,17,976 magenta Mountain Feist,53.37550774073126,-2.966268896541578
2023-6-29,2023-7-6,14,864 tan Telomian,53.416844183140334,-2.943329546264181
2023-6-29,2023-7-6,2,664 lavender Border Collie,53.370252849874774,-2.9442677469651244
2023-7-15,2023-7-22,30,000 maroon Molossus of Epirus,53.39263817291404,-2.931391120103399
2023-7-15,2023-7-22,13,664 violet Sporting Lucas Terrier,53.40080708065169,-2.9412941267698898
2023-7-23,2023-7-30,27,256 red Ariegeois,53.41168475805906,-2.9232594609762828
2023-7-31,2023-8-7,35,760 olive Coton de Tulear,53.39684172362262,-2.9760522240219416
2023-8-8,2023-8-15,8,312 lavender Dunker,53.39091045738633,-2.9590691606458677
2023-8-16,2023-8-23,12,968 maroon German Spitz,53.39101194250027,-2.9398393196444204
2023-9-1,2023-9-8,21,416 blue Russian Toy,53.369978587986196,-2.939715064046709
2023-9-9,2023-9-16,41,312 red Grand Anglo-Français Blanc et Orange,53.40976837705881,-2.966994562896957
2023-9-9,2023-9-16,38,928 sky blue Patterdale Terrier,53.40435553742342,-2.9508610795062395
2023-9-25,2023-10-2,26,040 red Pražský Krysařík,53.38731386153599,-2.9695350286739313
2023-10-3,2023-10-10,20,536 teal English Mastiff,53.384318735195095,-2.9655698576490295
2023-10-11,2023-10-18,46,192 magenta Styrian Coarse-haired Hound,53.37805872273485,-2.976432349714514
2023-10-11,2023-10-18,47,768 azure Polish Tatra Sheepdog,53.40483511611957,-2.940190234614306
2023-10-19,2023-10-26,46,672 orange Cretan Hound,53.38174889061446,-2.9408656584248547
2023-10-27,2023-11-3,48,264 azure Old English Terrier,53.41851046421475,-2.93794352345526
2023-11-12,2023-11-19,38,304 azure Wire Fox Terrier,53.394640985507394,-2.9465604383839263
2023-11-12,2023-11-19,28,712 magenta Indian pariah dog,53.39417629424222,-2.964216281554286
2023-11-28,2023-12-5,17,232 azure Segugio dell'Appennino,53.40410022030468,-2.946630297540878
2023-11-28,2023-12-5,19,984 gold Slovakian Wirehaired Pointer,53.39466437195285,-2.9496952907717287
2023-12-6,2023-12-13,12,624 turquoise Banjara Hound,53.39054776583856,-2.9156826680140284
2023-12-14,2023-12-21,9,016 plum Gascon Saintongeois,53.39656374430323,-2.923200246389115
2023-12-22,2023-12-29,17,712 red Jagdterrier,53.38976677134755,-2.948544197256524
2023-12-30,2024-1-6,38,448 fuchsia Spanish Water Dog,53.39889487366869,-2.955828825254571
2024-1-15,2024-1-22,14,440 tan Ratonero Valenciano,53.39330268388055,-2.9503709576275696
2024-1-23,2024-1-30,34,880 magenta Pachon Navarro,53.40737530132964,-2.945316492536108
2024-1-23,2024-1-30,42,840 salmon Yakutian Laika,53.40163376568916,-2.94895582646609
2024-1-31,2024-2-7,12,480 pink Silken Windhound,53.40125426223059,-2.9562450889117144
2024-2-8,2024-2-15,15,536 fuchsia Chongqing dog,53.399652866167706,-2.9674886443228843
2024-2-24,2024-3-2,8,080 azure Gull Terrier,53.39278690550851,-2.94028434882523
2024-3-3,2024-3-10,43,016 magenta Keeshond,53.399913992919316,-2.9293581630312246
2024-3-3,2024-3-10,14,552 orange Schipperke,53.41115974181581,-2.941026269054305
2024-3-19,2024-3-26,41,144 turquoise American Staffordshire Terrier,53.38474522912883,-2.9583717800198883
2024-3-19,2024-3-26,22,072 orange Lakeland Terrier,53.397569582613635,-2.9776620979827157
2024-4-4,2024-4-11,35,920 salmon Small Münsterländer,53.37545890109578,-2.9409286931942233
2022-1-1,2022-1-8,14,096 violet English Cocker Spaniel,53.3870439768375,-2.9596805243628523
2022-1-17,2022-1-24,48,280 yellow Tyrolean Hound,53.371784132465685,-2.965207342803069
2022-1-17,2022-1-24,35,432 pink Belgian Shepherd,53.383441956002656,-2.9821730821987558
2022-1-25,2022-2-1,33,920 silver Pastore della Lessinia e del Lagorai,53.4048446591056,-2.9600852032178864
2022-2-2,2022-2-9,37,768 red Bolognese,53.3889905827476,-2.9553803108668717
2022-2-10,2022-2-17,10,216 lime Havanese,53.39557047924141,-2.9540349648892743
2022-2-18,2022-2-25,27,000 black Carea Castellano Manchego,53.374389251744816,-2.9659939548231478
2022-3-6,2022-3-13,44,504 black Boerboel,53.406918517354256,-2.963336302678158
2022-3-14,2022-3-21,11,184 orchid Hygen Hound,53.39119419015211,-2.917168970021862
2022-3-22,2022-3-29,46,464 black Havanese,53.37540782644039,-2.9504504048214812
2022-3-30,2022-4-6,42,400 cyan Croatian Sheepdog,53.3803515624576,-2.944711409311708
2022-3-30,2022-4-6,13,272 lime Thai Ridgeback,53.3974693158738,-2.953490555286521
2022-4-7,2022-4-14,23,200 teal Grand Basset Griffon Vendéen,53.375047031553,-2.9535006148897764
2022-4-15,2022-4-22,19,344 cyan Huntaway,53.39330172103174,-2.9450056071721065
2022-4-23,2022-4-30,13,136 mint green Olde English Bulldogge,53.392551074748646,-2.948429367511835
2022-5-9,2022-5-16,11,368 maroon Soft-Coated Wheaten Terrier,53.390418652858685,-2.9610333677194376
2022-5-9,2022-5-16,2,416 pink Xoloitzcuintli,53.40160522216858,-2.946376458375312
2022-5-17,2022-5-24,33,912 azure Chihuahua,53.41989817859347,-2.9541900754533117
2022-6-2,2022-6-9,5,224 ivory English Springer Spaniel,53.3973874287972,-2.9801094065365987
2022-6-2,2022-6-9,37,536 magenta Indian pariah dog,53.39107958650143,-2.9617324626968866
2022-6-10,2022-6-17,24,856 white Basque Shepherd Dog,53.39465255737106,-2.940378578184209
2022-6-18,2022-6-25,38,320 lavender Pshdar Dog,53.367570779541644,-2.9585445649843223
2022-6-26,2022-7-3,2,272 grey French Bulldog,53.39125991693455,-2.9586175918879007
2022-7-4,2022-7-11,8,592 yellow Chesapeake Bay Retriever,53.39533892095085,-2.945334460811523
2022-7-20,2022-7-27,43,232 salmon Kai Ken,53.40243778739399,-2.9608037212973386
2022-7-28,2022-8-4,11,352 salmon Romanian Raven Shepherd Dog,53.3960904637558,-2.9788885084558387
2022-7-28,2022-8-4,27,232 turquoise Giant Schnauzer,53.39410604427439,-2.9468935318168406
2022-8-13,2022-8-20,14,632 black Siberian Husky,53.384029375636366,-2.9443898710021585
2022-8-13,2022-8-20,20,840 lime Bruno Jura Hound,53.42393504509947,-2.940269178315816
2022-8-21,2022-8-28,12,392 violet Vizsla,53.4136407006287,-2.968794504624725
2022-9-6,2022-9-13,40,040 purple Russian Spaniel,53.4198180850517,-2.9346221991570474
2022-9-6,2022-9-13,23,952 salmon Armenian Gampr dog,53.39450168971383,-2.9481854758128065
2022-9-22,2022-9-29,23,232 black Hovawart,53.39391921950233,-2.9491919398013806
2022-9-30,2022-10-7,13,144 green Treeing Walker Coonhound,53.41345688651449,-2.9687736958318283
2022-10-8,2022-10-15,31,040 grey Miniature Schnauzer,53.36491974860165,-2.9535324448000893
2022-10-8,2022-10-15,43,696 gold Bull Terrier,53.41296420720079,-2.924569583445873
2022-10-16,2022-10-23,15,176 purple Neapolitan Mastiff,53.39401767466262,-2.948585776901723
2022-11-1,2022-11-8,5,312 grey Telomian,53.38705976631934,-2.9422845647861777
2022-11-9,2022-11-16,40,320 pink Doberman Pinscher,53.39358690545838,-2.94515875534978
2022-11-17,2022-11-24,47,880 red Alopekis,53.38652089125656,-2.9518902350072267
2022-11-17,2022-11-24,40,280 indigo Eurasier,53.378907975367454,-2.978562426437634
2022-12-3,2022-12-10,22,576 white French Bulldog,53.39134368712801,-2.9835932843091086
2022-12-3,2022-12-10,22,088 lime Bhotia,53.39045129326267,-2.962791598273384
2022-12-19,2022-12-26,23,768 olive German Shorthaired Pointer,53.3965230405094,-2.9149964092500795
2022-12-27,2023-1-3,41,680 teal Pug,53.379513639904516,-2.9361472077451936
2022-12-27,2023-1-3,27,896 lime Neapolitan Mastiff,53.361269379991214,-2.9348220110456396
2023-1-12,2023-1-19,39,928 orange Saint Hubert Jura Hound,53.39178868619306,-2.915382513285522
2023-1-12,2023-1-19,9,032 grey Danish-Swedish Farmdog,53.3950407996468,-2.941527495123978
2023-1-20,2023-1-27,47,392 cyan Staffordshire Bull Terrier,53.39188391717143,-2.91893905175516
2023-2-5,2023-2-12,23,704 yellow German Longhaired Pointer,53.38222651359918,-2.942068368946366
2023-2-5,2023-2-12,39,768 plum Xoloitzcuintli,53.38501441146923,-2.9401334605948932
2023-2-13,2023-2-20,40,832 pink Alaskan Malamute,53.37992732959353,-2.9584538329746692
2023-2-21,2023-2-28,11,664 lime Miniature Pinscher,53.40011077197929,-2.9509723364977845
2023-3-9,2023-3-16,37,360 red White Swiss Shepherd Dog,53.36748699601076,-2.965323699380747
2023-3-9,2023-3-16,44,752 lime Kerry Beagle,53.394492014302436,-2.9568544254108247
2023-3-17,2023-3-24,27,384 orange Drever,53.39289531536585,-2.954923598942514
2023-4-2,2023-4-9,45,696 violet Pyrenean Mountain Dog,53.39705868294023,-2.9554533230532343
2023-4-10,2023-4-17,14,528 yellow Drentse Patrijshond,53.39075738017367,-2.9504788391193415
2023-4-18,2023-4-25,5,048 tan Hygen Hound,53.389142729761964,-2.94042151178337
2023-4-18,2023-4-25,7,528 tan Lupo Italiano,53.36152652362904,-2.9392776730190917
2023-5-4,2023-5-11,32,144 tan American Bulldog,53.414571656184435,-2.9432049810358194
2023-5-4,2023-5-11,24,696 cyan Cantabrian Water Dog,53.38487041982822,-2.97463967290696
2023-5-12,2023-5-19,6,592 grey Cantabrian Water Dog,53.39302792160531,-2.9515899796656413
2023-5-20,2023-5-27,14,192 grey Maremmano-Abruzzese Sheepdog,53.39825200154677,-2.9467554853224556
2023-6-5,2023-6-12,8,552 red Cardigan Welsh Corgi,53.38945532418732,-2.943479414954595
2023-6-13,2023-6-20,44,424 violet Drentse Patrijshond,53.4203366399702,-2.9496554780633915
2023-6-21,2023-6-28,17,488 gold Dalmatian,53.38925171027524,-2.9667745527799525
2023-6-21,2023-6-28,11,888 yellow Kromfohrländer,53.39471033975415,-2.9544826098701833
2023-6-29,2023-7-6,12,024 lavender Silken Windhound,53.38825189834932,-2.9205524028486707
2023-7-15,2023-7-22,42,368 indigo Canadian Eskimo Dog,53.401469453474704,-2.94482630432276
2023-7-15,2023-7-22,12,848 gold Small Greek domestic dog,53.38220721928952,-2.962735296204073
2023-7-31,2023-8-7,43,488 red Vikhan,53.36334328893988,-2.9402246568319015
2023-8-8,2023-8-15,36,104 ivory Finnish Lapphund,53.38811530340042,-2.9647596600307224
2023-8-16,2023-8-23,28,840 pink Bull Arab,53.39645767427703,-2.947854692751207
2023-8-16,2023-8-23,45,968 gold Taigan,53.386485635722295,-2.9351352012997722
2023-9-1,2023-9-8,25,640 azure Gull Terrier,53.38664574896275,-2.959926573085113
2023-9-9,2023-9-16,2,864 blue Phalène,53.399331315277514,-2.9535995013279717
2023-9-9,2023-9-16,43,888 purple Entlebucher Mountain Dog,53.42008956494233,-2.950897616268662
2023-9-25,2023-10-2,40,360 violet Phalène,53.395181877986474,-2.9508009240878437
2023-9-25,2023-10-2,21,760 green Giant Schnauzer,53.39409128814144,-2.9435809259201733
2023-10-3,2023-10-10,44,200 green Indian pariah dog,53.38219583476739,-2.9407084945017914
2023-10-11,2023-10-18,28,544 tan American Cocker Spaniel,53.40958233275312,-2.9187364492803454
2023-10-19,2023-10-26,18,568 green Gull Dong,53.40211960325405,-2.9433040629731977
2023-11-4,2023-11-11,43,264 maroon Xiasi Dog,53.41835664712628,-2.957502010072176
2023-11-4,2023-11-11,18,168 teal Shar Pei,53.366749564270556,-2.9298078150739
2023-11-12,2023-11-19,44,848 silver American Water Spaniel,53.37803757958856,-2.9497702748180927
2023-11-28,2023-12-5,7,248 cyan Chippiparai,53.37885307115231,-2.9526580335467543
2023-12-6,2023-12-13,34,616 teal Alaskan Husky,53.3795175571037,-2.9533570123415984
2023-12-6,2023-12-13,46,160 salmon Dandie Dinmont Terrier,53.405290552942425,-2.954292610903508
2023-12-14,2023-12-21,40,368 silver Schweizer Laufhund,53.396489461433134,-2.928347886580468
2023-12-22,2023-12-29,16,936 red Chien Français Blanc et Orange,53.4023779060019,-2.9282339560940045
2023-12-30,2024-1-6,30,632 salmon American Water Spaniel,53.39191857981095,-2.9769189776072835
2024-1-7,2024-1-14,19,400 orange Phu Quoc Ridgeback,53.379390678283734,-2.977922540846862
2024-1-15,2024-1-22,23,944 indigo Jack Russell Terrier,53.41893421359869,-2.9584581731463686
2024-1-31,2024-2-7,19,648 mint green Smooth Collie,53.40468916621879,-2.9765902181466117
2024-2-8,2024-2-15,9,560 white Swedish White Elkhound,53.40319929016004,-2.95222290505626
2024-2-8,2024-2-15,13,088 magenta Teddy Roosevelt Terrier,53.395843256847705,-2.952022111297083
2024-2-16,2024-2-23,14,056 black Armant,53.4082773358798,-2.951662983088795
2024-3-3,2024-3-10,41,696 olive Northern Inuit Dog,53.39640077006588,-2.942915514119477
2024-3-11,2024-3-18,31,896 fuchsia Hovawart,53.38722142277275,-2.925324630865589
2024-3-19,2024-3-26,45,808 sky blue Chihuahua,53.36966325314172,-2.931829153895592
2024-3-27,2024-4-3,16,704 red Danish-Swedish Farmdog,53.40419606443224,-2.9577379020984154
2024-3-27,2024-4-3,4,704 white Löwchen,53.39666116634683,-2.945428914352874
2022-1-9,2022-1-16,9,912 purple Maltese,53.41545432763359,-2.965981450346021
2022-1-17,2022-1-24,37,488 lime Pekingese,53.39297008392986,-2.9634550377473943
2022-1-25,2022-2-1,27,664 orchid Smooth Collie,53.39669312767971,-2.9483099216671462
2022-1-25,2022-2-1,38,328 blue Nova Scotia Duck Tolling Retriever,53.38892400177642,-2.9512511214917367
2022-2-10,2022-2-17,36,776 salmon Gascon Saintongeois,53.38937798855342,-2.9272599699663715
2022-2-18,2022-2-25,20,848 cyan Rafeiro do Alentejo,53.396850441666224,-2.9429710801653073
2022-2-26,2022-3-5,7,768 lavender Basque Shepherd Dog,53.38717506130147,-2.943317049280722
2022-3-6,2022-3-13,27,920 fuchsia Spinone Italiano,53.385990284075554,-2.93388600262233
2022-3-6,2022-3-13,34,224 grey Landseer,53.40474241899725,-2.980788365071703
2022-3-14,2022-3-21,21,480 orange Bouvier des Ardennes,53.414047574332194,-2.95219187448663
2022-3-30,2022-4-6,8,912 cyan Posavac Hound,53.388641679471014,-2.9572255624982517
2022-4-7,2022-4-14,36,272 blue Griffon Fauve de Bretagne,53.39416884071928,-2.9460176349234644
2022-4-15,2022-4-22,46,272 magenta Eurasier,53.395765905227705,-2.940648186252588
2022-4-15,2022-4-22,10,560 green Bohemian Shepherd,53.37672517768229,-2.9509345014561177
2022-5-1,2022-5-8,39,416 indigo Petit Basset Griffon Vendéen,53.42189542608406,-2.965407823901387
2022-5-1,2022-5-8,26,512 white Pekingese,53.404679283164675,-2.932366399711327
2022-5-9,2022-5-16,15,928 purple Greek Shepherd,53.39563246209631,-2.946127685890019
2022-5-25,2022-6-1,25,176 grey Whippet,53.358526922564174,-2.9499455834875334
2022-6-2,2022-6-9,21,888 turquoise Patterdale Terrier,53.38964065335074,-2.9567337889055807
2022-6-2,2022-6-9,12,288 fuchsia Carolina Dog,53.41657366006544,-2.9271559296793157
2022-6-10,2022-6-17,44,664 black Finnish Spitz,53.3918066003621,-2.9407985240919743
2022-6-26,2022-7-3,18,552 maroon Kai Ken,53.39594064752352,-2.9568128989670868
2022-6-26,2022-7-3,36,144 sky blue Canaan Dog,53.39081372073376,-2.945601604776016
2022-7-4,2022-7-11,13,632 lavender Braque de l'Ariège,53.383321417339744,-2.9606002919873617
2022-7-12,2022-7-19,27,040 orange Seppala Siberian Sleddog,53.3849815890997,-2.926481264066524
2022-7-20,2022-7-27,8,248 yellow Grand Anglo-Français Tricolore,53.384213020499736,-2.9574194437407186
2022-7-28,2022-8-4,15,032 teal Otterhound,53.39620018249724,-2.969519285565184
2022-8-13,2022-8-20,15,576 teal Bosnian Coarse-haired Hound,53.38709576827935,-2.935449621129692
2022-8-21,2022-8-28,21,040 lavender Lapponian Herder,53.3616847516512,-2.9524027747355603
2022-8-21,2022-8-28,31,720 lime Romanian Mioritic Shepherd Dog,53.38021604619825,-2.9388666297917325
2022-8-29,2022-9-5,16,888 salmon Pampas Deerhound,53.37272300706055,-2.973843637492564
2022-9-14,2022-9-21,25,560 silver Bergamasco Shepherd,53.390446555075535,-2.9371916882939786
2022-9-14,2022-9-21,41,128 green Chortai,53.395149045551236,-2.965471026341106
2022-9-30,2022-10-7,5,112 maroon Manchester Terrier,53.392690910593046,-2.942495476943691
2022-9-30,2022-10-7,18,616 turquoise Slovenský Cuvac,53.400354978565346,-2.948022242699267
2022-10-16,2022-10-23,32,168 lavender Lancashire Heeler,53.422504550942456,-2.9396658271846263
2022-10-16,2022-10-23,42,880 fuchsia Catahoula Leopard Dog,53.37477992293706,-2.929028053799925
2022-10-24,2022-10-31,1,768 turquoise Tenterfield Terrier,53.36674982230469,-2.9507339285997887
2022-11-1,2022-11-8,22,664 azure German Pinscher,53.39437301285876,-2.952981521451761
2022-11-9,2022-11-16,36,960 cyan Irish Wolfhound,53.363567940879044,-2.9466276338882835
2022-11-25,2022-12-2,22,120 turquoise Blue Picardy Spaniel,53.38494035220276,-2.9458700968317544
2022-11-25,2022-12-2,18,928 blue Koolie,53.36266809650496,-2.9423626768093527
2022-12-11,2022-12-18,33,200 salmon Chongqing dog,53.39451249442996,-2.9500203238098948
2022-12-11,2022-12-18,18,752 salmon Dogo Argentino,53.417966136251856,-2.9708146967155926
2022-12-27,2023-1-3,19,856 salmon Ariegeois,53.413098288611664,-2.9571916341906217
2023-1-4,2023-1-11,19,656 tan Brittany,53.389452102248626,-2.941668609049543
2023-1-12,2023-1-19,7,872 mint green Shikoku,53.386172594074665,-2.960462845692291
2023-1-12,2023-1-19,47,960 salmon Dutch Shepherd,53.40544653684909,-2.9350438065121125
2023-1-28,2023-2-4,22,680 teal Bhotia,53.39421919292977,-2.937286460234077
2023-2-5,2023-2-12,40,888 salmon Field Spaniel,53.41021851790706,-2.96385312798418
2023-2-5,2023-2-12,35,584 fuchsia Irish Water Spaniel,53.391150892795444,-2.960031041890261
2023-2-13,2023-2-20,16,160 salmon Griffon Fauve de Bretagne,53.37872941991865,-2.9550103041930242
2023-3-1,2023-3-8,29,920 sky blue Schillerstövare,53.39330987219486,-2.9470313652686855
2023-3-9,2023-3-16,6,144 salmon Alano Español,53.38594914113606,-2.9738652503943968
2023-3-17,2023-3-24,8,464 green Volpino Italiano,53.415567963139424,-2.9411887323740302
2023-3-17,2023-3-24,27,952 teal Montenegrin Mountain Hound,53.39563330646423,-2.952303933715939
2023-4-2,2023-4-9,44,792 maroon Hovawart,53.40178876515322,-2.9468671302031453
2023-4-10,2023-4-17,12,904 magenta Peruvian Inca Orchid,53.37240542004489,-2.9267032051723163
2023-4-18,2023-4-25,5,768 sky blue Denmark Feist,53.41240465671129,-2.9512915826067
2023-4-26,2023-5-3,7,136 lavender Armenian Gampr dog,53.38228884230719,-2.926180349181095
2023-5-4,2023-5-11,18,488 gold Serbian Tricolour Hound,53.39707670020937,-2.9361841943782565
2023-5-12,2023-5-19,29,272 silver Bullmastiff,53.40921779436381,-2.9259968762645485
2023-5-20,2023-5-27,33,528 orange Pharaoh Hound,53.392215205430304,-2.9384141255874283
2023-5-28,2023-6-4,25,696 indigo Austrian Black and Tan Hound,53.41088076827691,-2.9176339225883794
2023-5-28,2023-6-4,15,152 salmon English Springer Spaniel,53.380466486991715,-2.9204970434933557
2023-6-13,2023-6-20,4,112 red Billy,53.39576558141766,-2.950820390311037
2023-6-21,2023-6-28,40,904 cyan Plott Hound,53.396786052395946,-2.9265351546068814
2023-6-29,2023-7-6,5,808 salmon Flat-Coated Retriever,53.426090547538955,-2.9383538950830825
2023-7-7,2023-7-14,5,968 lavender Bulldog,53.36434798179956,-2.9442374027926235
2023-7-15,2023-7-22,44,736 pink Soft-Coated Wheaten Terrier,53.39711856885722,-2.949621287407467
2023-7-23,2023-7-30,28,848 white Kuvasz,53.38580180462308,-2.936340507168211
2023-7-31,2023-8-7,12,944 blue Mucuchies,53.38107832651976,-2.974711070687249
2023-8-8,2023-8-15,31,696 silver Basset Artésien Normand,53.400894435724545,-2.933942691475977
2023-8-8,2023-8-15,3,352 yellow Petit Basset Griffon Vendéen,53.38093596904881,-2.949839939331241
2023-8-16,2023-8-23,7,448 cyan Sardinian Shepherd Dog,53.39135536610067,-2.939995088305295
2023-9-1,2023-9-8,19,792 cyan English Toy Terrier,53.402271579900685,-2.9516601899485977
2023-9-1,2023-9-8,40,168 black Dingo,53.373909599969416,-2.9736815900449756
2023-9-17,2023-9-24,18,128 pink Sinhala Hound,53.38428229286712,-2.94359147226794
2023-9-17,2023-9-24,1,800 teal Airedale Terrier,53.37821974314302,-2.9634549576827567
2023-10-3,2023-10-10,30,384 orange Jagdterrier,53.38261571361627,-2.9157938094172096
2023-10-11,2023-10-18,29,128 sky blue Alano Español,53.37569847163925,-2.950073836013644
2023-10-11,2023-10-18,23,640 olive Blue Lacy,53.39104874447482,-2.920528367238603
2023-10-19,2023-10-26,20,728 maroon Grand Bleu de Gascogne,53.40048426041636,-2.963319862978892
2023-10-27,2023-11-3,40,200 purple Scottish Terrier,53.38860451661548,-2.9474798380653056
2023-11-12,2023-11-19,1,336 orange Pharaoh Hound,53.3804126375797,-2.9414843094835987
2023-11-12,2023-11-19,47,224 lime Boerboel,53.38946317083374,-2.945993466357436
2023-11-20,2023-11-27,7,192 maroon Slovakian Wirehaired Pointer,53.40297978168283,-2.9525263949540204
2023-11-28,2023-12-5,41,080 pink Manchester Terrier,53.401007018990846,-2.9286654936774994
2023-12-14,2023-12-21,45,384 yellow Gascon Saintongeois,53.372243322858615,-2.9297691398153347
2023-12-22,2023-12-29,21,616 gold West Highland White Terrier,53.39788432163475,-2.9257239979870064
2023-12-30,2024-1-6,34,216 salmon Thai Bangkaew Dog,53.400128540425406,-2.964652812713325
2023-12-30,2024-1-6,26,744 fuchsia Chongqing dog,53.371526970360215,-2.93248233156919
2024-1-15,2024-1-22,18,840 violet Billy,53.39386094164568,-2.947339171163435
2024-1-23,2024-1-30,25,472 mint green Carea Castellano Manchego,53.36076702959459,-2.9353347605764384
2024-1-31,2024-2-7,33,712 purple Silky Terrier,53.39364015597692,-2.9149582562195064
2024-2-8,2024-2-15,32,560 indigo Cão da Serra de Aires,53.40523635828046,-2.9381194474678978
2024-2-16,2024-2-23,46,296 purple Basset Artésien Normand,53.39294296232977,-2.943340972123451
2024-2-24,2024-3-2,19,488 pink Drever,53.39534247136813,-2.943181591873099
2024-3-3,2024-3-10,46,368 purple Magyar agár,53.37317712487495,-2.9346860375044344
2024-3-3,2024-3-10,5,752 violet Chortai,53.37155617652538,-2.9705425370036664
2024-3-19,2024-3-26,46,640 plum King Shepherd,53.361625626639864,-2.9407825117095854
2024-3-27,2024-4-3,47,312 green Petit Basset Griffon Vendéen,53.368083568721225,-2.965686721633233
2024-3-27,2024-4-3,18,560 magenta Cane Paratore,53.411046769312684,-2.954339824179783
2022-1-9,2022-1-16,14,032 pink Cão da Serra de Aires,53.39308589578791,-2.9459548608815567
2022-1-9,2022-1-16,29,864 silver Dandie Dinmont Terrier,53.400266149524164,-2.968544750670617
2022-1-17,2022-1-24,43,744 silver Danish-Swedish Farmdog,53.40223778202671,-2.979917197476766
2022-1-25,2022-2-1,43,312 lime Brussels Griffon,53.39324945041885,-2.9403523938321996
2022-2-2,2022-2-9,2,656 olive Shiloh Shepherd,53.401186400418254,-2.971042469822578
2022-2-18,2022-2-25,34,656 grey Bakharwal dog,53.402642112950886,-2.920340941965833
2022-2-26,2022-3-5,46,152 red Telomian,53.39434322778595,-2.9495458573270525
